Beds,Bath,Sqft,Price,Address,Province,Region,Latitude,Longitude,Location
2.0,1.0,775.0,89900.0,4912 49 ave ,AB,Prairie Provinces,53.26407655714286,-113.5516827,"4912, 49 Avenue, City of Leduc, Alberta, T9E 7G5, Canada"
4.0,2.0,1136.0,170000.0,5207 sunset drive ,AB,Prairie Provinces,53.2931555,-110.0130043,"Sunset Drive, Heritage Estates, City of Lloydminster, Lloydminster (city), Alberta, T9V 2A3, Canada"
3.0,2.0,1750.0,195000.0,5018 alexander ave. ,AB,Prairie Provinces,52.0964583,-111.4495733,"Alexander Avenue, Coronation, Town of Coronation, Alberta, T0C 1C0, Canada"
2.0,1.0,76424.0,79900.0,4908 49 ave ,AB,Prairie Provinces,54.2663938,-110.73840078167969,"Bonnyville Centralized High School, 4908, 49 Avenue, Bonnyville, Town of Bonnyville, Alberta, T9N 2J7, Canada"
2.0,2.0,1120.0,150000.0,54 mcalpine crescent ,AB,Prairie Provinces,55.7778944,-118.8467488,"McAlpine Crescent, Spirit River, Town of Spirit River, Alberta, T0H 3G0, Canada"
1.0,1.0,700.0,41900.0,4901 46 avenue ,AB,Prairie Provinces,53.0110278,-112.82253907531202,"University of Alberta - Augustana Campus, 4901, 46 Avenue, College, Camrose, Alberta, T4V 2R3, Canada"
2.0,2.0,628833.0,137900.0,12636 71 st nw ,AB,Prairie Provinces,53.584283733333336,-113.45080373333332,"12636, 71 Street NW, Balwin, Northern Mature Area, Avenue District, Edmonton, Edmonton (city), Alberta, T5C 2A7, Canada"
1.0,1.0,685.0,127500.0,9305 107 avenue ,AB,Prairie Provinces,55.17692395454545,-118.77471372727273,"9305, 107 Avenue, Hillside, Grande Prairie, Grande Prairie (city), Alberta, T8V 6R1, Canada"
3.0,2.0,1444.0,199000.0,406 3 street e ,AB,Prairie Provinces,50.5636201,-111.8929966,"3 Street E, Brooks, City of Brooks, Alberta, T1R 0E8, Canada"
3.0,1.0,945.0,189900.0,236 11 street sw ,AB,Prairie Provinces,51.0467829,-114.0885543,"11 Street SW, Connaught, Downtown West End, Calgary, Alberta, T2P 3N7, Canada"
3.0,1.0,1277.0,154000.0,209 3 avenue ,AB,Prairie Provinces,53.5182807,-110.33315403333334,"209, 3 Avenue, Village of Marwayne, County of Vermilion River, Alberta, T0B 2X0, Canada"
3.0,2.0,1136.0,169950.0,303 3rd street ,AB,Prairie Provinces,50.0969826,-111.7964742,"3rd Street, Hays, Municipal District of Taber, Alberta, Canada"
3.0,2.0,120408.0,49900.0,149 heritage drive ,AB,Prairie Provinces,53.6125139,-113.6220248,"149, Heritage Drive, St. Albert, Alberta, T8N 6S2, Canada"
3.0,2.0,1114.0,195000.0,6914 94 street ,AB,Prairie Provinces,55.14315883105196,-118.77736092149462,"6914, 94 Street, South Patterson Place, Grande Prairie, Grande Prairie (city), Alberta, T8W 1H1, Canada"
2.0,1.0,988.0,99900.0,5226 victoria ave ,AB,Prairie Provinces,53.55916,-113.8784302,"Victoria Avenue, Spruce Village, City of Spruce Grove, Stony Plain (town), Alberta, T7X 0B2, Canada"
2.0,1.0,1037.0,143500.0,10404 24 ave nw ,AB,Prairie Provinces,53.4547884,-113.5000756,"10404, 24 Avenue NW, Ermineskin, Kaskitayo, Edmonton, Edmonton (city), Alberta, T6J 5J8, Canada"
3.0,1.0,1150.0,129900.0,4814 53 avenue ,AB,Prairie Provinces,54.12326910646132,-114.40125484538812,"4814, 53 Avenue, Town of Barrhead, Barrhead, Alberta, T7N 1A2, Canada"
2.0,1.0,1280.0,159900.0,9910 98 street ,AB,Prairie Provinces,58.1841537,-116.3950935,"98 Street, La Crete, Mackenzie County, Alberta, T0H 2H0, Canada"
3.0,2.0,1004.0,174900.0,5005 47 avenue ,AB,Prairie Provinces,49.7831221,-112.1491223,"Pet Valu, 5005, 47 Avenue, Taber, Town of Taber, Alberta, T1G 1R7, Canada"
6.0,2.0,1200.0,175000.0,5030 40 street ,AB,Prairie Provinces,52.016248,-113.95257,"5030, 40 Street, Innisfail, Town of Innisfail, Alberta, T4G 1E2, Canada"
3.0,2.0,1457.0,149900.0,5413 56 street ,AB,Prairie Provinces,53.3569932749891,-113.4203752672321,"5413, 56 Street, Beauridge, Beaumont, Alberta, T4X 1A4, Canada"
3.0,1.0,118404.0,169900.0,5614 148 st ,AB,Prairie Provinces,49.6030152,-114.407524,"148 Street, Frank, Municipality of Crowsnest Pass, Crowsnest Pass (municipality), Alberta, T0K 0E0, Canada"
2.0,1.0,725.0,169900.0,11917 103 st ,AB,Prairie Provinces,55.1818685,-118.8061957,"103 Street, Avondale, Grande Prairie, Grande Prairie (city), Alberta, T8V 4W3, Canada"
2.0,1.0,840.0,125000.0,5714 55 street ,AB,Prairie Provinces,49.7798438,-112.1384712,"55 Street, Taber, Town of Taber, Alberta, T1G 2A7, Canada"
2.0,2.0,964.0,189900.0,1818 simcoe boulevard sw ,AB,Prairie Provinces,51.0304535,-114.1822069,"Simcoe Boulevard SW, Signal Hill, Calgary, Alberta, T3H 4M9, Canada"
4.0,2.0,1174.0,187500.0,"10409 114 street fairview, ab t0h 1l0 ",AB,Prairie Provinces,56.0656995,-118.3938138,"114 Street, Fairview, Town of Fairview, Alberta, T0H 1L0, Canada"
3.0,2.0,1054.0,148000.0,330 hankel court ,AB,Prairie Provinces,50.452163,-111.6521614,"Hankel Court, Tilley, County of Newell, Alberta, Canada"
2.0,1.0,720.0,122000.0,4811 52 avenue ,AB,Prairie Provinces,54.1213081,-114.4015177,"4811, 52 Avenue, Town of Barrhead, Barrhead, Alberta, T7N 1A1, Canada"
2.0,1.0,879.0,125000.0,5718 55 street ,AB,Prairie Provinces,49.7798438,-112.1384712,"55 Street, Taber, Town of Taber, Alberta, T1G 2A7, Canada"
4.0,2.0,1122.0,179000.0,"10413 115 street fairview, ab t0h 1l0 ",AB,Prairie Provinces,56.0676335,-118.3955854,"115 Street, Fairview, Town of Fairview, Alberta, T0H 1L0, Canada"
2.0,1.0,10639.0,134900.0,5218 51 avenue ,AB,Prairie Provinces,54.72186158342392,-113.2990920196578,"5218, 51 Avenue, Town of Athabasca, Alberta, T9S 1G8, Canada"
3.0,1.0,1298.0,149000.0,4903 50 street ,AB,Prairie Provinces,52.0934533,-114.7382673,"GTI, 4903, 50 Street, Caroline, Alberta, T0M 0M0, Canada"
3.0,1.0,1056.0,179900.0,4812 45 street ,AB,Prairie Provinces,55.06609355,-117.27099969119932,"4812, 45 Street, Valleyview, Town of Valleyview, Alberta, T0H 0C8, Canada"
2.0,1.0,484.0,169900.0,13039-66 street ,AB,Prairie Provinces,53.0103365,-112.8542604,"66 Street, Elizabeth Heights, Camrose, Alberta, T4V 4L4, Canada"
3.0,1.0,1051.0,179000.0,411 6 street nw ,AB,Prairie Provinces,51.0764884,-114.0774326,"6 Street NW, Mount Pleasant, Calgary, Alberta, T2M 2Z8, Canada"
3.0,2.0,1520.0,105000.0,7821 97 avenue ,AB,Prairie Provinces,55.16785900677967,-118.79708620508475,"7821, 97 Avenue, Central Business District, Grande Prairie, Grande Prairie (city), Alberta, T8V 6X3, Canada"
3.0,2.0,1260.0,109900.0,5802 fontaine drive ,AB,Prairie Provinces,54.4259267,-110.1989069,"Fontaine Drive, Cold Lake South, City of Cold Lake, Alberta, T9M 1R5, Canada"
3.0,2.0,712.0,199900.0,11825 70 st nw ,AB,Prairie Provinces,53.57100445666667,-113.44897693666668,"11825, 70 Street NW, Montrose, Greater Highlands, Avenue District, Edmonton, Edmonton (city), Alberta, T5B 1P1, Canada"
3.0,1.0,1328.0,169900.0,10131 104 avenue ,AB,Prairie Provinces,56.2292981,-117.2868166,"10131, 104 Avenue, South End, Peace River, Alberta, T8S 1P7, Canada"
3.0,1.0,1220.0,79000.0,4630  windsor ave. ,AB,Prairie Provinces,52.092414,-111.4444873,"Windsor Avenue, Coronation, Town of Coronation, Alberta, T0C 1C0, Canada"
2.0,1.0,525.0,35000.0,316 1st street ,AB,Prairie Provinces,51.1895954,-114.4685628,"1st Street, East End, Cochrane, Town of Cochrane, Alberta, T0L 0W0, Canada"
2.0,1.0,912.0,59000.0,106 railway avenue ,AB,Prairie Provinces,51.01522925,-113.54127284999998,"106, Railway Avenue, Cheadle, Wheatland County, Alberta, T1P 0X8, Canada"
3.0,2.0,81601.0,188000.0,5125 48 avenue ,AB,Prairie Provinces,52.675559625000005,-113.58236035,"5125, 48 Avenue, Ponoka, Alberta, T4J 1K2, Canada"
1.0,1.0,584.0,196000.0,#50 first ave ,AB,Prairie Provinces,52.8680915,-112.9478179,"First Avenue, New Norway, Camrose County, Alberta, Canada"
5.0,3.0,1912.0,195000.0,9907 98 street ,AB,Prairie Provinces,58.1841537,-116.3950935,"98 Street, La Crete, Mackenzie County, Alberta, T0H 2H0, Canada"
6.0,3.0,1050.0,175000.0,4719 47 avenue ,AB,Prairie Provinces,52.96627945714286,-113.36865097142856,"4719, 47 Avenue, City of Wetaskiwin, Wetaskiwin, Alberta, T9A 0J6, Canada"
1.0,1.0,790.0,179000.0,8912 - 156 street ,AB,Prairie Provinces,53.527806,-113.26068850242132,"156, Foxhaven Place, Foxhaven, Sherwood Park, Strathcona County, Alberta, T8A 5R7, Canada"
1.0,1.0,496.0,149900.0,1530 15 avenue sw ,AB,Prairie Provinces,51.03973235,-114.09637782616628,"1530, 15 Avenue SW, Sunalta, Lower Mount Royal, Calgary, Alberta, T3C 0X9, Canada"
2.0,1.0,76995.0,139000.0,5008 52 street ,AB,Prairie Provinces,52.32647025,-112.70855322436626,"5008, 52 Street, Stettler, Town of Stettler, Alberta, T0C 2L1, Canada"
2.0,1.0,1040.0,89000.0,5207-50th street ,AB,Prairie Provinces,53.5055156,-112.0494312,"50th Street, Vegreville, Town of Vegreville, Alberta, T9C 1L8, Canada"
2.0,1.0,636.0,115000.0,4718 51 avenue ,AB,Prairie Provinces,52.6408667,-114.2340721,"4718, 51 Avenue, Rimbey, Alberta, T0C 2J0, Canada"
2.0,1.0,792.0,25000.0,5019 50 avenue ,AB,Prairie Provinces,53.2646119,-113.5548129,"5019, 50 Avenue, City of Leduc, Alberta, T9E 6T3, Canada"
2.0,2.0,1344.0,74900.0,4710 windsor avenue ,AB,Prairie Provinces,52.092414,-111.4444873,"Windsor Avenue, Coronation, Town of Coronation, Alberta, T0C 1C0, Canada"
2.0,1.0,1015.0,129900.0,5302 48 street ,AB,Prairie Provinces,53.2817254,-110.0133205,"5302, 48 Street, City of Lloydminster, Lloydminster (city), Alberta, T9V 0L1, Canada"
2.0,2.0,1024.0,165000.0,5037 47 ave ,AB,Prairie Provinces,55.12364402059993,-118.77173972794324,"5037, 47 Avenue, County of Grande Prairie, Alberta, T8W 5A8, Canada"
4.0,2.0,1145.0,99500.0,"25 prince drive, lamont, alberta ",AB,Prairie Provinces,53.7626293,-112.7784937,"Prince Drive, Lamont, Town of Lamont, Alberta, T0B 2R0, Canada"
2.0,1.0,960.0,105000.0,5007a 47 street ,AB,Prairie Provinces,54.11788201,-114.39699387,"5007, 47 Street, Town of Barrhead, Barrhead, Alberta, T7N 1M1, Canada"
4.0,2.0,110116.0,189900.0,11 duke drive ,AB,Prairie Provinces,53.7643713,-112.7786281,"Duke Drive, Lamont, Town of Lamont, Alberta, T0B 2R0, Canada"
3.0,1.0,867.0,199800.0,821a balmoral street se ,AB,Prairie Provinces,50.0395256,-110.6594901,"Balmoral Street Southeast, Medicine Hat, Medicine Hat (city), Alberta, T1A 8T5, Canada"
2.0,2.0,807.0,129900.0,5228-47 street ,AB,Prairie Provinces,52.401118,-113.184726,"5228, 47 Street, Village of Alix, Alix, Alberta, T0C 0B0, Canada"
4.0,2.0,1120.0,174000.0,5008 50 avenue ,AB,Prairie Provinces,52.3260671,-112.7061768,"Over The Top Hydroponics, 5008, 50 Avenue, Stettler, Town of Stettler, Alberta, T0C 2L2, Canada"
2.0,2.0,485.0,197500.0,121 copperpond common se ,AB,Prairie Provinces,50.9242094,-113.9318582,"Copperpond Common SE, Copperfield, Calgary, Alberta, T2Z 5B6, Canada"
4.0,1.0,1440.0,68000.0,5124 48 street ,AB,Prairie Provinces,54.1212656,-114.399655,"5124, 48 Street, Town of Barrhead, Barrhead, Alberta, T7N 1M1, Canada"
4.0,1.0,973.0,119500.0,5135-52nd ave ,AB,Prairie Provinces,56.1908771,-117.5929069,"52nd Avenue, Grimshaw, Town of Grimshaw, Alberta, T0H 1W0, Canada"
2.0,2.0,1008.0,157000.0,5038-47th ave ,AB,Prairie Provinces,56.1862649,-117.6024127,"47th Avenue, Grimshaw, Town of Grimshaw, Alberta, T0H 1W0, Canada"
3.0,1.0,106779.0,59900.0,4809 50th ave ,AB,Prairie Provinces,53.9913939,-111.2635013,"50th Avenue, St. Paul, Town of St. Paul, Alberta, T0A, Canada"
2.0,1.0,760.0,100000.0,101 big hill way se ,AB,Prairie Provinces,51.28170885,-113.99985865,"101, Big Hill Way SE, Big Springs, Airdrie, Alberta, T4A 1Z3, Canada"
3.0,3.0,1176.0,175000.0,5420 46 street ,AB,Prairie Provinces,54.1249091,-114.3948505,"5420, 46 Street, Town of Barrhead, Barrhead, Alberta, T7N 1M1, Canada"
2.0,1.0,681.0,115000.0,8021-115 ave ,AB,Prairie Provinces,54.158117460179554,-113.82587788694856,"8021, 115 Avenue, Westlock, Town of Westlock, Alberta, T7P 2R5, Canada"
3.0,2.0,1115.0,99900.0,5014 imperial avenue ,AB,Prairie Provinces,52.0935264,-111.4415053,"Imperial Avenue, Coronation, Town of Coronation, Alberta, T0C 1C0, Canada"
3.0,1.0,1023.0,179900.0,79 amberly co nw ,AB,Prairie Provinces,53.60865604999999,-113.4237271655443,"Amberly Court, Casselman-Steele Heights, Edmonton, Edmonton (city), Alberta, Canada"
3.0,2.0,1216.0,60000.0,7903 97 avenue ,AB,Prairie Provinces,55.16785903621137,-118.797101228335,"7903, 97 Avenue, Central Business District, Grande Prairie, Grande Prairie (city), Alberta, T8V 6X3, Canada"
3.0,2.0,128791.0,155000.0,1663 jubilee crescent ,AB,Prairie Provinces,53.5632847,-113.2639455,"Jubilee Crescent, Jubilee Landing, Sherwood Park, Strathcona County, Alberta, T8H 0P1, Canada"
1.0,1.0,2812.0,99900.0,82032 highway 744 ,AB,Prairie Provinces,53.5231486,-113.26208023152708,"744, Forrest Drive, Foxboro, Sherwood Park, Strathcona County, Alberta, T8A 4V5, Canada"
2.0,1.0,838.0,179900.0,12032 25 ave ,AB,Prairie Provinces,52.9937405,-112.840848,"25 Avenue, Valleyview, Camrose, Alberta, T4V 4J7, Canada"
4.0,2.0,1130.0,139900.0,5206-53 avenue andrew alberta ,AB,Prairie Provinces,53.8822858,-112.3368117,"53 Avenue, Village of Andrew, Andrew, Alberta, T0B 0C0, Canada"
3.0,2.0,111946.0,109900.0,4811 51 ave ,AB,Prairie Provinces,52.9701887,-113.3720881,"4811, 51 Avenue, City of Wetaskiwin, Wetaskiwin, Alberta, T9A 0T5, Canada"
1.0,1.0,642.0,169900.0,10411 122 st nw ,AB,Prairie Provinces,53.54672185,-113.53227148333332,"10411, 122 Street NW, Westmount, Central Core, Edmonton, Edmonton (city), Alberta, T5N 4B7, Canada"
4.0,2.0,980.0,159900.0,4920 - 51 ave ,AB,Prairie Provinces,52.268248,-113.816182,"4920, 51 Avenue, City of Red Deer, Red Deer (city), Alberta, T4N 4A3, Canada"
3.0,1.0,822.0,31500.0,c27 terrace park ,AB,Prairie Provinces,52.2666254,-113.7817481,"Terrace Park, City of Red Deer, Red Deer (city), Alberta, T4R 1X9, Canada"
1.0,1.0,928.0,145000.0,9801 101 street ,AB,Prairie Provinces,56.235372,-117.288229,"9801, 101 Street, Downtown, Peace River, Alberta, T8S 1N9, Canada"
3.0,2.0,1200.0,200000.0,46515 range road 161 ,AB,Prairie Provinces,52.3038703,-112.1716017,"Range Road 161, County of Paintearth, Alberta, T0C 1M0, Canada"
2.0,1.0,1134.0,150000.0,106 4 street nw ,AB,Prairie Provinces,50.07882,-110.7950102,"106, 4 Street Northwest, Redcliff, Medicine Hat (city), Alberta, T0J 2P0, Canada"
3.0,2.0,1136678.0,145000.0,1018 west mount cr nw ,AB,Prairie Provinces,53.55551119375115,-113.69611460210318,"1018, West Mount Crescent NW, Westview Village, Edmonton, St. Albert (city), Alberta, T5S 2C3, Canada"
3.0,3.0,1240.0,179900.0,5506 49 street ,AB,Prairie Provinces,53.28260250033151,-110.01855080151223,"5506, 49 Street, City of Lloydminster, Lloydminster (city), Alberta, T9V 0L1, Canada"
5.0,2.0,2254.0,155000.0,366 20th street ,AB,Prairie Provinces,53.2541403,-110.025132,"20th Street, City of Lloydminster, Lloydminster (city), Alberta, T9V 2W2, Canada"
2.0,2.0,11295.0,145000.0,4636 53 street ,AB,Prairie Provinces,52.63692272786477,-114.24373979582154,"4636, 53 Street, Rimbey, Alberta, T0C 2J0, Canada"
2.0,1.0,926.0,167500.0,1064 dominion street se ,AB,Prairie Provinces,50.0363617,-110.6594866,"Dominion Street Southeast, Medicine Hat, Medicine Hat (city), Alberta, T1A 3J7, Canada"
3.0,1.0,796.0,149900.0,5337 49 avenue ,AB,Prairie Provinces,51.78799955,-114.10504657653374,"5337, 49 Avenue, Olds, Town of Olds, Alberta, T4H 1S2, Canada"
3.0,1.0,1300.0,59900.0,4915 51 avenue ,AB,Prairie Provinces,54.72162739354228,-113.29723354718443,"4915, 51 Avenue, Town of Athabasca, Alberta, T9S 1G8, Canada"
1.0,1.0,792.0,78000.0,38226 highway 855 ,AB,Prairie Provinces,53.606459,-112.3364683,"Highway 855, Lamont County, Alberta, T0B 3H0, Canada"
3.0,2.0,1527.0,162500.0,2207 danielle drive ,AB,Prairie Provinces,52.2651718,-113.7490423,"Danielle Drive, City of Red Deer, Red Deer (city), Alberta, T4P 3V5, Canada"
2.0,1.0,956.0,120000.0,148 4th street ,AB,Prairie Provinces,50.0967298,-111.7938564,"4th Street, Hays, Municipal District of Taber, Alberta, Canada"
2.0,1.0,816.0,199900.0,4709 49 street ,AB,Prairie Provinces,54.1149467,-114.4015998,"4709, 49 Street, Town of Barrhead, Barrhead, Alberta, T7N 1A2, Canada"
3.0,2.0,10764.0,125000.0,418 oak wood cr nw ,AB,Prairie Provinces,53.5052712,-113.3635481,"Oak Wood Crescent NW, Maple Oak Ridge, South Industrial District, Edmonton, Edmonton (city), Alberta, T6P 1L3, Canada"
1.0,1.0,748.0,44500.0,205 2 avenue ,AB,Prairie Provinces,54.153177108,-113.127734858,"205, 2 Avenue, Thorhild, Thorhild County, Alberta, T0A 3J0, Canada"
3.0,3.0,1154.0,179900.0,614 5 avenue w ,AB,Prairie Provinces,50.5711253,-111.9053533,"5 Avenue West, Brooks, City of Brooks, Alberta, T1R 0V4, Canada"
5.0,2.0,904.0,199900.0,350 5 street se ,AB,Prairie Provinces,50.0366154,-110.6791619079005,"350, 5 Street Southeast, Medicine Hat, Medicine Hat (city), Alberta, T1A 0M8, Canada"
3.0,2.0,1216.0,89900.0,331 scott lane ,AB,Prairie Provinces,55.16267227844751,-118.88863112553064,"331, Scott Lane, County of Grande Prairie, Alberta, T8V 4Z1, Canada"
2.0,1.0,627756.0,120000.0,5 st 222,AB,Prairie Provinces,54.157369750898205,-113.13117772035928,"222, 5 Street, Thorhild, Thorhild County, Alberta, T0A 3J0, Canada"
4.0,1.0,95703.0,132900.0,5109 48 avenue ,AB,Prairie Provinces,54.7179559,-113.2886924,"5109, 48 Avenue, Town of Athabasca, Alberta, T9S 1A3, Canada"
5.0,2.0,1158.0,169000.0,320 7 avenue w ,AB,Prairie Provinces,49.8673424,-111.3819332,"7 Avenue West, Bow Island, Town of Bow Island, Alberta, T0K 0G0, Canada"
3.0,2.0,1069403.0,188000.0,10664 93 st nw ,AB,Prairie Provinces,53.55331106011593,-113.47989307205174,"10664, 93 Street NW, McCauley, Central Core, Avenue District, Edmonton, Edmonton (city), Alberta, T5G 0A2, Canada"
3.0,1.0,1412.0,180000.0,52&54 1 avenue sw ,AB,Prairie Provinces,51.0523076,-114.0777886,"1 Avenue SW, Sunnyside, Calgary, Alberta, T2P 3B5, Canada"
2.0,1.0,1.0,55000.0,4302 50 street ,AB,Prairie Provinces,53.8212698,-113.3334137,"4302, 50 Street, Town of Gibbons, Gibbons, Alberta, T0A 1N0, Canada"
3.0,1.0,1151748.0,159900.0,333 white earth st ,AB,Prairie Provinces,54.1111002,-112.4757336,"White Earth Street, Smoky Lake, Town of Smoky Lake, Alberta, T0A 3C0, Canada"
3.0,2.0,109052.0,144000.0,3104 29 street s ,AB,Prairie Provinces,49.679136,-112.7994091,"29 Street S, Lakeview, Lethbridge, Alberta, T1K 2R4, Canada"
3.0,2.0,743362.0,159000.0,11838 66 st nw ,AB,Prairie Provinces,53.57129521428572,-113.44326028928572,"11838, 66 Street NW, Montrose, Greater Highlands, Avenue District, Edmonton, Edmonton (city), Alberta, T5B 1P1, Canada"
2.0,1.0,776.0,112900.0,11004 106 avenue ,AB,Prairie Provinces,55.176056,-118.8402869,"106 Avenue, Grande Prairie, Grande Prairie (city), Alberta, T8V 0N7, Canada"
3.0,2.0,1174.0,199000.0,203 railway avenue ,AB,Prairie Provinces,53.0072985,-113.0575751,"203, Railway Avenue, Village of Bittern Lake, Alberta, Canada"
4.0,2.0,1056.0,192500.0,5121 56 street ,AB,Prairie Provinces,53.3547338,-113.4212832,"5121, 56 Street, Beauridge, Beaumont, Alberta, T4X 1A4, Canada"
3.0,2.0,1216.0,55000.0,75 greenwood villa ,AB,Prairie Provinces,53.55494601707639,-113.88361449868614,"75, Greenwood Drive, Brookwood, City Centre, City of Spruce Grove, Stony Plain (town), Alberta, T7X 2Y9, Canada"
5.0,2.0,1284.0,184500.0,4902 58 street ,AB,Prairie Provinces,54.7198335,-113.2979668,"4902, 58 Street, Town of Athabasca, Alberta, T9S 1G8, Canada"
3.0,2.0,149492.0,199900.0,2122 danielle drive ,AB,Prairie Provinces,52.2651718,-113.7490423,"Danielle Drive, City of Red Deer, Red Deer (city), Alberta, T4P 3V5, Canada"
3.0,2.0,1054.0,124900.0,2335 danielle drive ,AB,Prairie Provinces,52.2651718,-113.7490423,"Danielle Drive, City of Red Deer, Red Deer (city), Alberta, T4P 3V5, Canada"
4.0,1.0,1593072.0,199900.0,580061 range road 162 nw nw ,AB,Prairie Provinces,54.773382,-112.3444518,"Range Road 162, Lac La Biche County, Alberta, T0A 2T0, Canada"
2.0,1.0,1112.0,179900.0,505 4 street e ,AB,Prairie Provinces,50.5638575,-111.8905213,"4 Street East, Brooks, City of Brooks, Alberta, T1R 0E8, Canada"
1.0,1.0,573.0,58200.0,226 3rd street w ,AB,Prairie Provinces,51.6508706,-111.9361293,"3rd Street West, Hanna, Alberta, T0J 1P0, Canada"
6.0,2.0,2101.0,179900.0,10021 106 avenue ,AB,Prairie Provinces,55.1760831,-118.79672513333334,"10021, 106 Avenue, Avondale, Grande Prairie, Grande Prairie (city), Alberta, T8V 2M2, Canada"
2.0,1.0,64415.0,104900.0,5815 50a ave ,AB,Prairie Provinces,52.32587805,-112.72078537475696,"5815, 50A Avenue, Stettler, Town of Stettler, Alberta, T0L 2L2, Canada"
3.0,2.0,1155.0,174900.0,10408 105 street ,AB,Prairie Provinces,55.1863418,-118.810865,"105 Street, Grande Prairie, Grande Prairie (city), Alberta, T8V 4W3, Canada"
2.0,2.0,1360.0,179900.0,114 alberta avenue ,AB,Prairie Provinces,53.570391,-113.4857727,"118 Avenue NW, Alberta Avenue, Avenue District, Edmonton, Edmonton (city), Alberta, T5G 1C8, Canada"
3.0,2.0,1520.0,168500.0,3006 33 avenue s ,AB,Prairie Provinces,49.6600134,-112.7989444,"33 Avenue S, West Mayor Magrath Dr., Lethbridge, Alberta, T1K 6Y6, Canada"
2.0,1.0,748959.0,178000.0,12012 76 st nw ,AB,Prairie Provinces,53.5738493,-113.45816155714286,"12012, 76 Street NW, Eastwood, Avenue District, Edmonton, Edmonton (city), Alberta, T5B 2C9, Canada"
3.0,1.0,1043.0,195000.0,10305 98 avenue ,AB,Prairie Provinces,55.1688959,-118.7818604,"98 Avenue, Smith, Grande Prairie, Grande Prairie (city), Alberta, T8V 6A3, Canada"
3.0,2.0,1088.0,79900.0,2316 danielle drive ,AB,Prairie Provinces,52.2651718,-113.7490423,"Danielle Drive, City of Red Deer, Red Deer (city), Alberta, T4P 3V5, Canada"
1.0,1.0,648962.0,168000.0,12112 85 st nw ,AB,Prairie Provinces,53.57541187142857,-113.47100214285716,"12112, 85 Street NW, Eastwood, Avenue District, Edmonton, Edmonton (city), Alberta, T5B 1G1, Canada"
3.0,2.0,1787147.0,199500.0,103 evergreen cres. ,AB,Prairie Provinces,52.9761894,-113.3833966,"103, Evergreen Crescent, City of Wetaskiwin, Wetaskiwin, Alberta, T9A 1A5, Canada"
3.0,1.0,1065.0,79900.0,80 burroughs place ne ,AB,Prairie Provinces,51.0798004,-113.9272427,"Burroughs Place NE, Parkridge Estates, Monterey Park, Calgary, Alberta, T1Y 6P3, Canada"
3.0,2.0,114396.0,99900.0,1101 84 street ne ,AB,Prairie Provinces,51.0629748,-113.9118957,"84 Street NE, Abbeydale, Calgary, Alberta, T1Y 7G9, Canada"
5.0,3.0,1232.0,107900.0,19 hollinger drive ,AB,Prairie Provinces,54.7257018,-115.4042276,"Hollinger Drive, Swan Hills, Town of Swan Hills, Alberta, T0G 2C0, Canada"
3.0,2.0,1117303.0,189000.0,13211 85 street nw ,AB,Prairie Provinces,53.5254721,-113.4574163,"85 Street NW, Greater Bonnie Doon, Strathearn, Edmonton, Edmonton (city), Alberta, T6C 1N8, Canada"
4.0,1.0,743792.0,184900.0,12024 57 st nw ,AB,Prairie Provinces,53.5742715,-113.42928045,"12024, 57 Street NW, Newton, Greater Highlands, Avenue District, Edmonton, Edmonton (city), Alberta, T5W 0K8, Canada"
5.0,2.0,960.0,164900.0,324 6 avenue e ,AB,Prairie Provinces,51.6997904,-113.264713,"6 Avenue East, Three Hills, Alberta, T0M 2N0, Canada"
4.0,2.0,1071.0,182500.0,629 52 avenue w ,AB,Prairie Provinces,50.0274973,-113.5920932,"52 Avenue West, Claresholm, Towns of Claresholm, Alberta, T0L 0T0, Canada"
5.0,2.0,1091.0,184900.0,5016 48 street ,AB,Prairie Provinces,53.3544282,-113.4121451,"5016, 48 Street, Beau Meadow, Beaumont, Alberta, T4X 0G4, Canada"
3.0,2.0,822.0,179900.0,138 12 street se ,AB,Prairie Provinces,51.0425068,-114.0331648,"12 Street SE, Inglewood, Calgary, Alberta, T2G 0M7, Canada"
2.0,1.0,1213.0,119900.0,473 8 street se ,AB,Prairie Provinces,51.0418891,-114.0420357,"8 Street SE, Ramsay, Calgary, Alberta, T2G 4M4, Canada"
3.0,1.0,720.0,139900.0,1511 13 street n ,AB,Prairie Provinces,51.0691789,-114.0922427,"13 Street NW, Rosemont, Calgary, Alberta, T2M 0W7, Canada"
2.0,1.0,720.0,125000.0,4716 54 street ,AB,Prairie Provinces,52.32227805,-112.7112039763685,"4716, 54 Street, Stettler, Town of Stettler, Alberta, T0C 2L1, Canada"
2.0,1.0,1040.0,179000.0,4 mclean crescent w ,AB,Prairie Provinces,52.7792133,-111.6908491,"McLean Crescent, Sedgewick, Town of Sedgewick, Alberta, T0B 4C0, Canada"
2.0,1.0,8838.0,179000.0,128 dufferin street ,AB,Prairie Provinces,53.6482732,-113.6524633,"Dufferin Street, St. Albert, Alberta, T8N 6J8, Canada"
3.0,2.0,1200.0,160000.0,107 eastbrook way e ,AB,Prairie Provinces,50.5714509,-111.8849751,"Eastbrook Way, Brooks, City of Brooks, Alberta, T1R 0N6, Canada"
2.0,1.0,870.0,99900.0,225 1 avenue se ,AB,Prairie Provinces,51.0528203,-113.9514615,"1 Avenue SE, Penbrooke Meadows, Calgary, Alberta, T2A 5Z7, Canada"
3.0,1.0,1038.0,84900.0,801 9th avenue ,AB,Prairie Provinces,53.3237654,-113.5702721,"56 Avenue East, Leduc County, Alberta, T9E 0V6, Canada"
3.0,1.0,1368.0,185000.0,4809 52 street ,AB,Prairie Provinces,55.0659928,-117.2842388,"4809, 52 Street, Valleyview, Town of Valleyview, Alberta, T0H 0C8, Canada"
5.0,1.0,1200.0,55000.0,58 manor park crescent ,AB,Prairie Provinces,50.5861126,-111.8914633,"Manor Park Crescent, Brooks, City of Brooks, Alberta, T1R 1G7, Canada"
3.0,2.0,1216.0,59900.0,301 stanley avenue ,AB,Prairie Provinces,50.7247131,-113.9611582,"Stanley Avenue, Okotoks, Town of Okotoks, Alberta, T1S 2N7, Canada"
2.0,2.0,942065.0,139900.0,4313 53a st ,AB,Prairie Provinces,52.96450702,-113.38254716,"4313, 53A Street, City of Wetaskiwin, Wetaskiwin, Alberta, T9A 1S8, Canada"
2.0,1.0,952.0,124000.0,326 3 avenue e ,AB,Prairie Provinces,50.566554,-111.8937187,"3 Avenue E, Brooks, City of Brooks, Alberta, T1R 0E8, Canada"
3.0,2.0,2132.0,174900.0,5009 49a street ,AB,Prairie Provinces,53.2282517,-114.9733483,"49A Street, Drayton Valley, Alberta, T7A 1C4, Canada"
3.0,2.0,1360.0,134900.0,226 2 street ,AB,Prairie Provinces,54.155511371428574,-113.12585442857144,"226, 2 Street, Thorhild, Thorhild County, Alberta, T0A 3J0, Canada"
4.0,2.0,101257.0,195000.0,5412 49 street ,AB,Prairie Provinces,53.560537,-114.4669783,"5412, 49 Street, Wabamun, Alberta, T0E 2K0, Canada"
3.0,2.0,1256589.0,153000.0,5914 fontaine dr ,AB,Prairie Provinces,54.4259267,-110.1989069,"Fontaine Drive, Cold Lake South, City of Cold Lake, Alberta, T9M 1R5, Canada"
3.0,1.0,1050.0,73400.0,215 1 avenue e ,AB,Prairie Provinces,50.5627642,-111.891077,"1 Avenue E, Brooks, City of Brooks, Alberta, T1R 1B5, Canada"
1.0,1.0,584485.0,196000.0,50 first av ,AB,Prairie Provinces,52.8680915,-112.9478179,"First Avenue, New Norway, Camrose County, Alberta, Canada"
3.0,2.0,1720.0,199000.0,4810 57 avenue ,AB,Prairie Provinces,54.1270228,-114.4001843,"4810, 57 Avenue, Town of Barrhead, Barrhead, Alberta, T7N 1A2, Canada"
2.0,1.0,703.0,85000.0,5023 50 avenue ,AB,Prairie Provinces,52.26971016666666,-113.81392283333334,"5023, Gaetz Avenue, City of Red Deer, Red Deer (city), Alberta, T4N 4A4, Canada"
2.0,2.0,970.0,125911.0,149 1 avenue s ,AB,Prairie Provinces,54.8192738,-112.6849739,"1 Avenue South, Grassland, Athabasca County, Alberta, T0A 1V0, Canada"
2.0,1.0,839.0,83500.0,4836 57 avenue ,AB,Prairie Provinces,53.52177487058824,-114.00112632941176,"4836, 57 Avenue, Willow Park, Stony Plain, Town of Stony Plain, Alberta, T7Z 1P8, Canada"
4.0,1.0,960.0,179900.0,4909 51 street ,AB,Prairie Provinces,55.06777095,-117.28243121347424,"4909, 51 Street, Valleyview, Town of Valleyview, Alberta, T0H 0C8, Canada"
3.0,2.0,1519984.0,150000.0,5911 primrose rd ,AB,Prairie Provinces,54.4259084,-110.1954007,"Primrose Road, Cold Lake South, City of Cold Lake, Alberta, T9M 1R5, Canada"
2.0,1.0,988028.0,99900.0,5226 victoria av ,AB,Prairie Provinces,53.55916,-113.8784302,"Victoria Avenue, Spruce Village, City of Spruce Grove, Stony Plain (town), Alberta, T7X 0B2, Canada"
4.0,1.0,98317.0,194900.0,5205 50 avenue ,AB,Prairie Provinces,53.2638738,-113.5592903,"Aurora Yoga & Spa, 5205, 50 Avenue, City of Leduc, Alberta, T9E 6T2, Canada"
3.0,1.0,1140.0,37500.0,87 greenbrook village ,AB,Prairie Provinces,50.5681328,-111.8784648,"Greenbrook Village, Brooks, City of Brooks, Alberta, T1R 1L2, Canada"
3.0,1.0,1021.0,149900.0,4511 50 avenue ,AB,Prairie Provinces,55.06889955,-117.27240317549084,"4511, 50 Avenue, Valleyview, Town of Valleyview, Alberta, T0H 0C8, Canada"
3.0,2.0,1058.0,138500.0,315 4th avenue se ,AB,Prairie Provinces,51.5867921,-113.482066,"4th Avenue SE, Village of Linden, Linden, Alberta, T0M 0B5, Canada"
3.0,2.0,914.0,155000.0,4329 53 street ,AB,Prairie Provinces,54.4138997,-110.2112239,"53 Street, Cold Lake South, City of Cold Lake, Alberta, T9M 1P3, Canada"
2.0,2.0,671674.0,74900.0,4710 windsor av ,AB,Prairie Provinces,52.092414,-111.4444873,"Windsor Avenue, Coronation, Town of Coronation, Alberta, T0C 1C0, Canada"
2.0,1.0,768.0,179900.0,4927 8 avenue ,AB,Prairie Provinces,51.0882474,-115.3633001,"8 Avenue, Town Centre, Canmore, Town of Canmore, Alberta, T1W 2B8, Canada"
3.0,2.0,1008.0,180000.0,10901 92 street ,AB,Prairie Provinces,56.2234884,-117.2955298,"10901, 92 Street, Lower West Peace, Peace River, Alberta, T8S 1P7, Canada"
5.0,4.0,1383.0,149900.0,4218 54 avenue ,AB,Prairie Provinces,52.0208573472969,-113.96009952312856,"4218, 54 Avenue, Innisfail, Town of Innisfail, Alberta, T4G 1S1, Canada"
2.0,1.0,864.0,174900.0,5114 47th street ,AB,Prairie Provinces,56.1904032,-117.5977708,"47th Street, Grimshaw, Town of Grimshaw, Alberta, T0H 1W0, Canada"
3.0,2.0,962.0,199900.0,5911 51 avenue ,AB,Prairie Provinces,52.3269136,-112.72286559869951,"5911, 51 Avenue, Stettler, Town of Stettler, Alberta, T0L 2L2, Canada"
2.0,1.0,732.0,179000.0,4203 50 avenue ,AB,Prairie Provinces,52.020352,-113.950442,"4203, 50 Avenue, Innisfail, Town of Innisfail, Alberta, T4G 1S1, Canada"
2.0,1.0,850.0,139900.0,945 4 street se ,AB,Prairie Provinces,51.0425816,-114.0534346,"4 Street SE, Victoria Park, Downtown East Village, Calgary, Alberta, T2G 1R1, Canada"
2.0,1.0,723233.0,195000.0,5325 45 street ,AB,Prairie Provinces,54.4300409,-110.1954979,"45 Street, Cold Lake South, City of Cold Lake, Alberta, T9M 0B6, Canada"
2.0,2.0,751.0,197500.0,66 9 street se ,AB,Prairie Provinces,51.0353963,-114.039669,"9 Street SE, Ramsay, Calgary, Alberta, T2G 4M5, Canada"
3.0,1.0,1226235.0,189900.0,11527 84 st nw ,AB,Prairie Provinces,51.0919403,-114.2095338,"84 Street NW, Greenwood/Greenbriar, Calgary, Alberta, T3B 0H8, Canada"
4.0,2.0,1177.0,195000.0,205 sanden street ,AB,Prairie Provinces,52.9208133,-112.4661668,"Sanden Street, Village of Bawlf, Alberta, Canada"
5.0,2.0,1050.0,185000.0,5711 51st street ,AB,Prairie Provinces,53.2844252,-110.0205252,"51st Street, City of Lloydminster, Lloydminster (city), Alberta, T9V 0Z7, Canada"
2.0,1.0,1058.0,144900.0,5016 47th street ,AB,Prairie Provinces,53.94924,-113.5907754,"5016, 47th Street, Legal, Alberta, Canada"
3.0,1.0,960.0,114900.0,5248 53 avenue ,AB,Prairie Provinces,52.27246879041424,-113.81621061028189,"5248, 53 Avenue, City of Red Deer, Red Deer (city), Alberta, T4N 5K1, Canada"
2.0,1.0,965.0,195000.0,850 main street ,AB,Prairie Provinces,56.7285577,-111.3805715,"Main Street, Abasand, Fort McMurray, Wood Buffalo, Alberta, T9H 1S8, Canada"
2.0,1.0,8085.0,78000.0,10712 111 street ,AB,Prairie Provinces,55.1631753,-118.8306282,"111 Street, Richmond Industrial Park, Grande Prairie, Grande Prairie (city), Alberta, T8V 4Z7, Canada"
3.0,1.0,1124.0,165000.0,5309 57 street ,AB,Prairie Provinces,54.12370202,-114.41417366,"5309, 57 Street, Town of Barrhead, Barrhead, Alberta, T7N 1A3, Canada"
2.0,1.0,109228.0,129900.0,5253 52 street ,AB,Prairie Provinces,53.5599873,-114.47312936666664,"5253, 52 Street, Wabamun, Alberta, T0E 2K0, Canada"
4.0,1.0,149668.0,192000.0,"134, centro ave ",AB,Prairie Provinces,52.3437109,-114.6695648,"Centro Avenue, Alhambra, Clearwater County, Alberta, T0M 0C0, Canada"
2.0,1.0,778.0,55000.0,4802 52 street ,AB,Prairie Provinces,53.2633286,-113.5577999,"4802, 52 Street, City of Leduc, Alberta, T9E 5E7, Canada"
1.0,1.0,640.0,92000.0,557 5 street e ,AB,Prairie Provinces,50.5633784,-111.8882135,"5 Street East, Brooks, City of Brooks, Alberta, T1R 1B2, Canada"
4.0,3.0,1184.0,94900.0,10 southview avenue ,AB,Prairie Provinces,54.7209693,-115.3997709,"Southview Avenue, Swan Hills, Town of Swan Hills, Alberta, T0G 2C0, Canada"
1.0,1.0,803.0,159900.0,10027 107 avenue ,AB,Prairie Provinces,55.17702921538461,-118.79712532307693,"10027, 107 Avenue, Avondale, Grande Prairie, Grande Prairie (city), Alberta, T8V 2M2, Canada"
4.0,2.0,1136.0,198000.0,10408 117 street ,AB,Prairie Provinces,55.1680838,-118.8495226,"117 Street, Centre West Business Park, Grande Prairie, Grande Prairie (city), Alberta, T8V 5W3, Canada"
3.0,1.0,977.0,110000.0,5003 53 street ,AB,Prairie Provinces,52.3261545,-112.709338251317,"5003, 53 Street, Stettler, Town of Stettler, Alberta, T0C 2L1, Canada"
2.0,2.0,625604.0,164700.0,11607 81 st nw ,AB,Prairie Provinces,53.56753700714285,-113.46533798571429,"11607, 81 Street NW, Parkdale, Avenue District, Edmonton, Edmonton (city), Alberta, T5B 0R9, Canada"
2.0,1.0,1086.0,80000.0,5127 52 avenue ,AB,Prairie Provinces,53.096761096,-113.477233292,"5127, 52 Avenue, Millet, Town of Millet, Alberta, T0C 1Z0, Canada"
3.0,2.0,1247871.0,179900.0,25319 hwy 661 ,AB,Prairie Provinces,54.3849919,-114.776708,"Highway 661, Fort Assiniboine, Woodlands County, Alberta, T0G 1A0, Canada"
4.0,2.0,1240.0,200000.0,11512 103 avenue ,AB,Prairie Provinces,58.18983,-116.4053808,"103 Avenue, La Crete, Mackenzie County, Alberta, T0H 2H0, Canada"
2.0,1.0,908.0,44900.0,10104 108 street ,AB,Prairie Provinces,53.715976,-113.2077119,"10104, 108 Street, Fort Saskatchewan, Alberta, T8L 1Z5, Canada"
2.0,1.0,600.0,45000.0,115 3 avenue e ,AB,Prairie Provinces,50.566554,-111.8937187,"3 Avenue E, Brooks, City of Brooks, Alberta, T1R 0E8, Canada"
2.0,1.0,88803.0,119900.0,4711 48 street ,AB,Prairie Provinces,54.7171575,-113.28292206666669,"4711, 48 Street, Town of Athabasca, Alberta, T9S 1R3, Canada"
2.0,1.0,844.0,165000.0,102 5 street se ,AB,Prairie Provinces,50.075531856603774,-110.78201222792453,"102, 5 Street Southeast, Redcliff, Medicine Hat (city), Alberta, T0J 2P0, Canada"
4.0,1.0,1256.0,69000.0,110 6 avenue w ,AB,Prairie Provinces,55.2150952,-119.4333533,"6 Avenue West, Beaverlodge, Town of Beaverlodge, Alberta, T0H 0C0, Canada"
4.0,2.0,1012.0,178000.0,5522 47 avenue ,AB,Prairie Provinces,53.2625266728,-113.551516384,"5522, 47 Avenue, City of Leduc, Alberta, T9E 5X7, Canada"
2.0,1.0,810.0,199900.0,10140 99  avenue ,AB,Prairie Provinces,55.16993389757499,-118.80160042394564,"10140, 99 Avenue, Central Business District, Grande Prairie, Grande Prairie (city), Alberta, T8V 2V4, Canada"
3.0,2.0,134708.0,195000.0,10987 grande avenue ,AB,Prairie Provinces,53.8789255,-119.1364139,"Grande Avenue, Hamlet of Grande Cache, Municipal District of Greenview, Alberta, T0E 0Y0, Canada"
1.0,1.0,2304.0,129000.0,806 railway avenue ,AB,Prairie Provinces,54.3743518,-113.4567061,"Railway Avenue, Rochester, Athabasca County, Alberta, T0G 1Z0, Canada"
2.0,1.0,83189.0,109900.0,111 2 avenue ,AB,Prairie Provinces,53.5165152,-110.3315749,"111, 2 Avenue, Village of Marwayne, County of Vermilion River, Alberta, T0B 2X0, Canada"
3.0,2.0,1216.0,79900.0,164 swan city ,AB,Prairie Provinces,55.169385000000005,-118.75406333671296,"Swan City, Grande Prairie, Grande Prairie (city), Alberta, Canada"
3.0,2.0,1152.0,92000.0,60 highfield close ,AB,Prairie Provinces,51.5703004,-114.0964587,"Highfield Close, Carstairs, Town of Carstairs, Alberta, T0M 0N0, Canada"
2.0,1.0,860.0,177500.0,9707 96 avenue ,AB,Prairie Provinces,53.7966203,-113.64033765,"9707, 96 Avenue, Notre Dame, Morinville, Alberta, T8R 1R2, Canada"
2.0,2.0,2750.0,79000.0,225 3 street ,AB,Prairie Provinces,54.1539500349076,-113.12744212396224,"225, 3 Street, Thorhild, Thorhild County, Alberta, T0A 3J0, Canada"
4.0,2.0,1648.0,189000.0,4213 50 avenue ,AB,Prairie Provinces,52.67557466666666,-113.56622946666668,"4213, 50 Avenue, Ponoka, Alberta, T4J 1B5, Canada"
2.0,2.0,489.0,175000.0,914 7 street s ,AB,Prairie Provinces,49.6969468,-112.8372349,"7 Street S, Downtown, Lethbridge, Alberta, T1J 2T1, Canada"
3.0,1.0,672.0,105000.0,5102 52 street ,AB,Prairie Provinces,53.5578704,-114.473295,"5102, 52 Street, Wabamun, Alberta, T0E 2K0, Canada"
1.0,2.0,401.0,122500.0,4802 49 ave ,AB,Prairie Provinces,52.9684338,-113.3703538,"4802, 49 Avenue, City of Wetaskiwin, Wetaskiwin, Alberta, T9A 1H3, Canada"
3.0,2.0,1208.0,37000.0,157 swan city ,AB,Prairie Provinces,55.169385000000005,-118.75406333671296,"Swan City, Grande Prairie, Grande Prairie (city), Alberta, Canada"
4.0,2.0,1322.0,184000.0,621 1 street s ,AB,Prairie Provinces,54.3746163,-113.4551974,"1 Street South, Rochester, Athabasca County, Alberta, T0G 1Z0, Canada"
2.0,1.0,1179.0,177000.0,519a allowance avenue se ,AB,Prairie Provinces,50.0352232,-110.6643458,"Allowance Avenue Southeast, Medicine Hat, Medicine Hat (city), Alberta, T1A 8J4, Canada"
2.0,2.0,918.0,160000.0,10116 101 avenue ,AB,Prairie Provinces,53.7171472,-113.2075422,"10116, 101 Avenue, Fort Saskatchewan, Alberta, T8L 1Z5, Canada"
3.0,2.0,1216.0,48500.0,105 glasgow street ,AB,Prairie Provinces,50.6063766,-113.6265588,"Glasgow Street, Blackie, Foothills County, Alberta, Canada"
5.0,1.0,1276.0,142000.0,809 centre street ,AB,Prairie Provinces,53.3390856,-113.5420908,"Centre Street, Nisku, Leduc County, Alberta, T9E 8A2, Canada"
3.0,1.0,980.0,164900.0,8 rydberg street ,AB,Prairie Provinces,52.5076903,-110.9646094,"Rydberg Street, Village of Hughenden, Alberta, Canada"
3.0,1.0,102185.0,159900.0,9808 108 avenue ,AB,Prairie Provinces,55.17809305714286,-118.78966425714286,"9808, 108 Avenue, VLA Montrose, Grande Prairie, Grande Prairie (city), Alberta, T8V 1R2, Canada"
6.0,2.0,1008.0,198000.0,4802 45 avenue ,AB,Prairie Provinces,54.7132696,-113.2825313,"4802, 45 Avenue, Town of Athabasca, Alberta, T9S 1A3, Canada"
4.0,1.0,1124.0,60000.0,4827 51 street ,AB,Prairie Provinces,54.1179838,-114.4078226,"4827, 51 Street, Town of Barrhead, Barrhead, Alberta, T7N 1A3, Canada"
2.0,1.0,91225.0,129900.0,4713 53 street ,AB,Prairie Provinces,52.322345,-112.70908563670444,"4713, 53 Street, Stettler, Town of Stettler, Alberta, T0C 2L1, Canada"
3.0,2.0,936468.0,170000.0,2611 135 av nw ,AB,Prairie Provinces,53.59611296923598,-113.38213945821003,"2611, 135 Avenue NW, Kernohan, South Clareview, Clareview, Edmonton, Edmonton (city), Alberta, T5A 5C9, Canada"
4.0,2.0,845.0,199000.0,5014 54 street ,AB,Prairie Provinces,52.464826,-113.119305,"5014, 54 Street, Mirror, Lacombe County, Alberta, T0B 3C0, Canada"
4.0,2.0,875.0,196900.0,5536 47a street ,AB,Prairie Provinces,49.7953094,-112.15539728679624,"47A Street, Taber, Town of Taber, Alberta, Canada"
4.0,2.0,1076.0,110000.0,4914 51 street ,AB,Prairie Provinces,53.1086097,-114.4739187,"4914, 51 Street, Village of Breton, Breton (village), Alberta, T0C 0P0, Canada"
1.0,2.0,993.0,99900.0,118 2nd avenue ,AB,Prairie Provinces,50.0946037,-111.797801,"2nd Avenue, Hays, Municipal District of Taber, Alberta, Canada"
3.0,2.0,1200.0,102000.0,314 2 avenue e ,AB,Prairie Provinces,50.5628324,-111.883414,"2 Avenue E, Brooks, City of Brooks, Alberta, T1R 1L2, Canada"
2.0,2.0,672.0,189900.0,9208 101 avenue ,AB,Prairie Provinces,55.1716833,-118.7705361,"9208, 101 Avenue, Hillside, Grande Prairie, Grande Prairie (city), Alberta, T8V 6A3, Canada"
3.0,1.0,1331.0,164900.0,413 3 avenue w ,AB,Prairie Provinces,50.5681456,-111.9018557,"3 Avenue W, Brooks, City of Brooks, Alberta, T1R 0E8, Canada"
3.0,1.0,1161.0,189000.0,203 2 avenue e ,AB,Prairie Provinces,50.5628324,-111.883414,"2 Avenue E, Brooks, City of Brooks, Alberta, T1R 1L2, Canada"
2.0,2.0,924.0,34900.0,6309 69 street ,AB,Prairie Provinces,52.292363,-113.8368105,"6309, 69 Street, Mustang Acres, City of Red Deer, Red Deer (city), Alberta, T4P 1K4, Canada"
5.0,2.0,1341.0,199000.0,309 2 avenue nw ,AB,Prairie Provinces,51.2938652,-114.01377711475835,"309, 2 Avenue NW, Old Town, Airdrie, Alberta, T4B, Canada"
3.0,2.0,1831.0,179000.0,240 1 avenue nw ,AB,Prairie Provinces,51.0554176,-114.0804857,"1 Avenue NW, Sunnyside, Calgary, Alberta, T2N 0A2, Canada"
2.0,1.0,967.0,109900.0,7910 19  avenue ,AB,Prairie Provinces,53.3360406,-113.5313805,"19 Avenue, Nisku, Leduc County, Alberta, T9E 7Y1, Canada"
3.0,2.0,281134.0,180000.0,348 47 avenue w ,AB,Prairie Provinces,50.0224119,-113.5852604,"47 Avenue West, Claresholm, Towns of Claresholm, Alberta, T0L 0T0, Canada"
3.0,2.0,1443.0,189900.0,132 durham street ,AB,Prairie Provinces,49.9582138,-110.2713611,"Durham Street, Irvine, Cypress County, Alberta, Canada"
3.0,2.0,1003958.0,174900.0,5102 49th st ,AB,Prairie Provinces,53.83833280101861,-113.40943609545543,"5102, 49th Street, Bon Accord, Gibbons (town), Alberta, T0A 0K0, Canada"
4.0,2.0,999.0,200000.0,4712 56 street ,AB,Prairie Provinces,52.96757072,-113.39051368,"4712, 56 Street, City of Wetaskiwin, Wetaskiwin, Alberta, T9A 1V8, Canada"
4.0,2.0,1033.0,189000.0,5210 54a avenue ,AB,Prairie Provinces,53.0298519,-112.8412383,"54A Avenue, Victoria Park, Camrose, Alberta, T4V 1Z4, Canada"
2.0,2.0,41554.0,119000.0,304 4 street sw ,AB,Prairie Provinces,55.28068931313131,-114.77693952525252,"304, 4 Street SW, Slave Lake, Municipal District of Lesser Slave River, Alberta, T0G 2A4, Canada"
4.0,3.0,1232.0,199000.0,4715 52 street ,AB,Prairie Provinces,52.32224135,-112.70752978741646,"4715, 52 Street, Stettler, Town of Stettler, Alberta, T0C 2L1, Canada"
4.0,2.0,1088.0,149000.0,11331 leonard street ,AB,Prairie Provinces,53.8809857,-119.1416908,"Leonard Street, Hamlet of Grande Cache, Municipal District of Greenview, Alberta, T0E 0Y0, Canada"
3.0,1.0,911.0,160000.0,4713 53 avenue ,AB,Prairie Provinces,53.26729644285714,-113.54899174285714,"4713, 53 Avenue, City of Leduc, Alberta, T9E 6T4, Canada"
3.0,2.0,1216009.0,89900.0,89 pleasantview mhp ,AB,Prairie Provinces,53.19600875,-114.97330389261845,"Pleasantview MHP, Drayton Valley, Alberta, Canada"
3.0,1.0,1201.0,165000.0,220 2 street w ,AB,Prairie Provinces,50.0695158,-112.2681333,"2 Street West, Retlaw, Municipal District of Taber, Alberta, Canada"
3.0,1.0,1037.0,135000.0,2006 13 street n ,AB,Prairie Provinces,51.0691789,-114.0922427,"13 Street NW, Rosemont, Calgary, Alberta, T2M 0W7, Canada"
2.0,1.0,960.0,45000.0,5114 49 avenue ,AB,Prairie Provinces,52.9691844,-113.3782498,"5114, 49 Avenue, City of Wetaskiwin, Wetaskiwin, Alberta, T9A 0S3, Canada"
3.0,2.0,1120.0,154900.0,5111 65 avenue ,AB,Prairie Provinces,52.6922683,-113.5757946,"5111, 65 Avenue, Ponoka, Alberta, T4J 1M1, Canada"
3.0,1.0,1125.0,152900.0,511b allowance avenue se ,AB,Prairie Provinces,50.0352232,-110.6643458,"Allowance Avenue Southeast, Medicine Hat, Medicine Hat (city), Alberta, T1A 8J4, Canada"
2.0,1.0,739.0,199900.0,1222 9 street n ,AB,Prairie Provinces,51.1224295,-114.0804559,"9 Street NW, Beddington Heights, Calgary, Alberta, T2K 4W1, Canada"
2.0,1.0,1001.0,85000.0,5007 47 avenue ,AB,Prairie Provinces,52.673559,-113.5780804,"5007, 47 Avenue, Ponoka, Alberta, T4J 1H7, Canada"
3.0,1.0,108429.0,182000.0,642 main street ,AB,Prairie Provinces,56.7285577,-111.3805715,"Main Street, Abasand, Fort McMurray, Wood Buffalo, Alberta, T9H 1S8, Canada"
3.0,2.0,873.0,175900.0,5008 53 street ,AB,Prairie Provinces,52.463283,-113.735558,"5008, 53 Street, City of Lacombe, Alberta, T4L 1K4, Canada"
4.0,2.0,1053796.0,89600.0,4912 51 av nw ,AB,Prairie Provinces,53.4883008,-113.5147653,"51 Avenue NW, Pleasantview, Edmonton, Edmonton (city), Alberta, T6H 0S4, Canada"
4.0,2.0,937.0,199900.0,1112 dominion street se ,AB,Prairie Provinces,50.0363617,-110.6594866,"Dominion Street Southeast, Medicine Hat, Medicine Hat (city), Alberta, T1A 3J7, Canada"
4.0,2.0,932162.0,129900.0,5006-5008 50 av ,AB,Prairie Provinces,52.269340642857145,-113.81421921428571,"5006, Gaetz Avenue, City of Red Deer, Red Deer (city), Alberta, T4N 4A4, Canada"
4.0,1.0,988.0,181500.0,5705 50 avenue ,AB,Prairie Provinces,52.3247897,-112.71775237905456,"5705, 50 Avenue, Stettler, Town of Stettler, Alberta, T0C 2L2, Canada"
3.0,2.0,1080.0,199000.0,5225 42 street ,AB,Prairie Provinces,51.7989445,-114.11066115,"5225, 42 Street, Olds, Town of Olds, Alberta, T4H 1P6, Canada"
3.0,2.0,960.0,149900.0,6117 50a avenue ,AB,Prairie Provinces,52.325866000000005,-112.72998027490372,"6117, 50A Avenue, Stettler, Town of Stettler, Alberta, T0L 2L2, Canada"
3.0,2.0,1040.0,167900.0,10300 118 street ,AB,Prairie Provinces,55.1653068,-118.8525971,"118 Street, Centre West Business Park, Grande Prairie, Grande Prairie (city), Alberta, T8V 0C7, Canada"
2.0,1.0,1012.0,69900.0,25 2 street s ,AB,Prairie Provinces,53.5153767,-110.3274994,"25, 2 Street South, Village of Marwayne, County of Vermilion River, Alberta, T0B 2X0, Canada"
5.0,3.0,1117.0,195000.0,11054 hoppe avenue ,AB,Prairie Provinces,53.8858253,-119.1263558,"Hoppe Avenue, Hamlet of Grande Cache, Municipal District of Greenview, Alberta, T0E 0Y0, Canada"
2.0,1.0,790.0,126000.0,5025 54 street ,AB,Prairie Provinces,52.46569016666667,-113.11902733333334,"5025, 54 Street, Mirror, Lacombe County, Alberta, T0B 3C0, Canada"
3.0,1.0,960.0,168500.0,9806 110 street ,AB,Prairie Provinces,54.15624403333334,-113.86954106111112,"9806, 110 Street, Westlock, Town of Westlock, Alberta, T7P 2M2, Canada"
3.0,1.0,952.0,29900.0,6834 59 avenue ,AB,Prairie Provinces,52.293033,-113.830597,"6834, 59 Avenue, City of Red Deer, Red Deer (city), Alberta, T4P 3M1, Canada"
2.0,1.0,752.0,186900.0,9515 105 avenue ,AB,Prairie Provinces,55.1751022,-118.7817081,"9515, 105 Avenue, Hillside, Grande Prairie, Grande Prairie (city), Alberta, T8V 1R2, Canada"
2.0,1.0,692.0,99500.0,5013 52 street ,AB,Prairie Provinces,52.3269151,-112.7079358254794,"5013, 52 Street, Stettler, Town of Stettler, Alberta, T0C 2L1, Canada"
2.0,1.0,676.0,130000.0,4911 55 street ,AB,Prairie Provinces,52.401449,-113.201045,"4911, 55 Street, Village of Alix, Alix, Alberta, T0C 0B0, Canada"
3.0,1.0,966.0,54900.0,022 main street ,AB,Prairie Provinces,56.7285577,-111.3805715,"Main Street, Abasand, Fort McMurray, Wood Buffalo, Alberta, T9H 1S8, Canada"
3.0,2.0,1022.0,157000.0,414 3 avenue e ,AB,Prairie Provinces,50.566554,-111.8937187,"3 Avenue E, Brooks, City of Brooks, Alberta, T1R 0E8, Canada"
2.0,1.0,64575.0,55000.0,5024 50 avenue ,AB,Prairie Provinces,52.465255,-114.050081,"5024, 50 Avenue, Bentley, Alberta, T0C 0J0, Canada"
4.0,3.0,1218915.0,124900.0,110 crescent dr ,AB,Prairie Provinces,54.7878405,-113.5594857,"Crescent Drive, White Gull, Athabasca County, Alberta, Canada"
4.0,3.0,1027.0,192500.0,310 6 avenue w ,AB,Prairie Provinces,55.2150952,-119.4333533,"6 Avenue West, Beaverlodge, Town of Beaverlodge, Alberta, T0H 0C0, Canada"
3.0,1.0,1020.0,140000.0,11402 norris cres ,AB,Prairie Provinces,53.6463679,-113.6751115,"Norris Crescent, St. Albert, Alberta, T8N 7E9, Canada"
2.0,1.0,696.0,138000.0,5008 52a street ,AB,Prairie Provinces,53.628745,-113.4152715,"52A Street, Hollick-Kenyon, Pilot Sound, Edmonton, Alberta, T5Y 0L2, Canada"
3.0,1.0,1253.0,119900.0,202 stuart street ,AB,Prairie Provinces,52.4812643,-116.0740843,"Stuart Street, Nordegg, Clearwater County, Alberta, T0M 2H0, Canada"
2.0,2.0,960.0,193000.0,22020 highway 49 ,AB,Prairie Provinces,55.4427456,-117.1637784,"Highway 49, Municipal District of Smoky River, Alberta, Canada"
3.0,3.0,1344.0,197900.0,4648  51 street ,AB,Prairie Provinces,52.63647099285714,-114.24188856607142,"4648, 51 Street, Rimbey, Alberta, T0C 2J0, Canada"
2.0,1.0,996.0,68000.0,4918 52 avenue ,AB,Prairie Provinces,53.8991488,-110.9002823,"4918, 52 Avenue, Elk Point, Town of Elk Point, Alberta, T0A 0B9, Canada"
3.0,1.0,1008.0,125000.0,5 selkirk  avenue ,AB,Prairie Provinces,52.5109191,-110.969543,"Selkirk Avenue, Village of Hughenden, Alberta, Canada"
3.0,2.0,945.0,179900.0,105 scandia crescent ,AB,Prairie Provinces,50.2792344,-112.0469386,"Scandia Court, Scandia, County of Newell, Alberta, Canada"
2.0,1.0,152881.0,165000.0,210 7 avenue e ,AB,Prairie Provinces,49.8696363,-111.3678895,"7 Avenue East, Bow Island, Town of Bow Island, Alberta, T0K 0G0, Canada"
3.0,1.0,1012.0,169900.0,305 3 street ,AB,Prairie Provinces,54.1557346,-113.1270041,"305, 3 Street, Thorhild, Thorhild County, Alberta, T0A 3J0, Canada"
2.0,2.0,1052.0,157500.0,514 3 street w ,AB,Prairie Provinces,50.5811745,-111.899913,"3 Street W, Brooks, City of Brooks, Alberta, T1R 0N9, Canada"
3.0,1.0,924.0,39000.0,52 evergreen village ,AB,Prairie Provinces,50.9075865,-114.1095857818373,"Evergreen Village, Evergreen, Calgary, Alberta, T2Y 4Z9, Canada"
3.0,1.0,1136.0,189900.0,10128 107 avenue ,AB,Prairie Provinces,56.2276988,-117.2828341,"10128, 107 Avenue, South End, Peace River, Alberta, T8S 1P7, Canada"
3.0,1.0,1575.0,169900.0,4814 52 street ,AB,Prairie Provinces,55.06642645,-117.28519835226138,"4814, 52 Street, Valleyview, Town of Valleyview, Alberta, T0H 0C8, Canada"
2.0,2.0,943.0,159900.0,128 1 avenue s ,AB,Prairie Provinces,54.8192738,-112.6849739,"1 Avenue South, Grassland, Athabasca County, Alberta, T0A 1V0, Canada"
2.0,1.0,1072.0,73000.0,4903 51 street ,AB,Prairie Provinces,55.06734525,-117.28237755,"4903, 51 Street, Valleyview, Town of Valleyview, Alberta, T0H 0C8, Canada"
2.0,1.0,1056.0,185000.0,5218 55 avenue ,AB,Prairie Provinces,52.68189385555556,-113.580069,"5218, 55 Avenue, Ponoka, Alberta, T4J 1M1, Canada"
3.0,2.0,1202339.0,119900.0,1643 jubilee cr ,AB,Prairie Provinces,53.5632847,-113.2639455,"Jubilee Crescent, Jubilee Landing, Sherwood Park, Strathcona County, Alberta, T8H 0P1, Canada"
3.0,2.0,1810.0,198900.0,102 main street ,AB,Prairie Provinces,53.1971085,-113.0575192,"102, Main Street, Village of Hay Lakes, Camrose County, Alberta, T0B 1W0, Canada"
4.0,2.0,895.0,199000.0,1101 13 street n ,AB,Prairie Provinces,51.0691789,-114.0922427,"13 Street NW, Rosemont, Calgary, Alberta, T2M 0W7, Canada"
3.0,1.0,123323.0,114500.0,807 5th street ,AB,Prairie Provinces,50.0977153,-111.793462,"5th Street, Hays, Municipal District of Taber, Alberta, Canada"
5.0,2.0,1760.0,85000.0,4801 windsor avenue ,AB,Prairie Provinces,52.092414,-111.4444873,"Windsor Avenue, Coronation, Town of Coronation, Alberta, T0C 1C0, Canada"
2.0,1.0,820.0,166500.0,5105 58 avenue ,AB,Prairie Provinces,52.68390794426417,-113.57512008875835,"5105, 58 Avenue, Ponoka, Alberta, T4J 1M1, Canada"
2.0,1.0,912.0,159900.0,4409 47 street ,AB,Prairie Provinces,52.96380282222222,-113.36579234444444,"4409, 47 Street, City of Wetaskiwin, Wetaskiwin, Alberta, T9A 0R6, Canada"
3.0,2.0,149738.0,127900.0,5802 labrador road ,AB,Prairie Provinces,54.4272743,-110.198425,"Labrador Road, Cold Lake South, City of Cold Lake, Alberta, T9M 1R5, Canada"
3.0,2.0,1503.0,60000.0,123 birch place ,AB,Prairie Provinces,53.6826758,-113.26376050207593,"Birch Place, Fort Saskatchewan, Alberta, Canada"
5.0,3.0,198904.0,199900.0,4932 48 street ,AB,Prairie Provinces,53.9521626,-113.1075197,"4932, 48 Street, Redwater, Town of Redwater, Alberta, T0A 2W0, Canada"
2.0,2.0,718.0,194900.0,5017 54a street ,AB,Prairie Provinces,53.2878218,-110.00721944389409,"5017, 54A Street, City of Lloydminster, Lloydminster (city), Alberta, T9V 0W9, Canada"
2.0,2.0,964.0,169900.0,4604 broadway avenue ,AB,Prairie Provinces,52.37594966666666,-113.795627,"4604, Broadway Avenue, Blackfalds, Alberta, T0M 0J0, Canada"
3.0,2.0,1073063.0,119000.0,5018 aspen pl ,AB,Prairie Provinces,53.252922225,-113.596191075,"5018, Aspen Place, City of Leduc, Alberta, T9E 0J5, Canada"
2.0,1.0,73125.0,85900.0,316 1 street e ,AB,Prairie Provinces,50.5716331,-111.8924814,"1 Street East, Brooks, City of Brooks, Alberta, T1R 0E8, Canada"
5.0,2.0,960.0,178500.0,5313 valley road ,AB,Prairie Provinces,53.578932,-114.1759011,"Valley Road, 53220 Range Road 21, Parkland County, Alberta, T0E 1B0, Canada"
1.0,1.0,572.0,99000.0,140 15 street n ,AB,Prairie Provinces,51.0728028,-114.0971815,"15 Street NW, Capitol Hill, Calgary, Alberta, T2M 0R6, Canada"
2.0,2.0,91494.0,198900.0,9 railway av ,AB,Prairie Provinces,51.09456025,-115.3591498671833,"9, Railway Avenue, Canmore, Town of Canmore, Alberta, T1W 1P6, Canada"
2.0,1.0,719035.0,199999.0,11527 93 street nw ,AB,Prairie Provinces,53.566460051724135,-113.48402533448277,"11527, 93 Street NW, Alberta Avenue, Avenue District, Edmonton, Edmonton (city), Alberta, T5G 1C8, Canada"
4.0,2.0,1008049.0,199900.0,4725 aspen av ,AB,Prairie Provinces,52.9863608,-113.3600878,"Aspen Avenue, City of Wetaskiwin, Wetaskiwin, Alberta, T9A 2Z8, Canada"
4.0,2.0,94828.0,187000.0,323 3 street s ,AB,Prairie Provinces,49.8235484,-111.7003544,"3 Street South, Grassy Lake, Municipal District of Taber, Alberta, T0K 0Z0, Canada"
4.0,2.0,1801.0,179000.0,4809 51 street ,AB,Prairie Provinces,52.269913,-113.809226,"4809, 51 Street, City of Red Deer, Red Deer (city), Alberta, T4N 3T2, Canada"
2.0,1.0,873.0,48500.0,106 4 avenue e ,AB,Prairie Provinces,50.5661379,-111.8864102,"4 Avenue East, Brooks, City of Brooks, Alberta, T1R 1B2, Canada"
3.0,1.0,1215.0,74900.0,41 rydberg street ,AB,Prairie Provinces,52.5076903,-110.9646094,"Rydberg Street, Village of Hughenden, Alberta, Canada"
2.0,2.0,1141.0,90000.0,412 railway avenue ,AB,Prairie Provinces,54.3743518,-113.4567061,"Railway Avenue, Rochester, Athabasca County, Alberta, T0G 1Z0, Canada"
1.0,2.0,645.0,188000.0,5608 51 avenue ,AB,Prairie Provinces,54.721875418123695,-113.29915357844796,"5608, 51 Avenue, Town of Athabasca, Alberta, T9S 1G8, Canada"
4.0,2.0,850.0,164900.0,5302 48 street ,AB,Prairie Provinces,53.2817254,-110.0133205,"5302, 48 Street, City of Lloydminster, Lloydminster (city), Alberta, T9V 0L1, Canada"
2.0,1.0,829.0,88900.0,4914 53 street ,AB,Prairie Provinces,52.32530955,-112.70996036054882,"4914, 53 Street, Stettler, Town of Stettler, Alberta, T0C 2L1, Canada"
4.0,2.0,1166.0,59900.0,8 cochrane street ,AB,Prairie Provinces,52.5132547,-110.9631314,"Cochrane Street, Village of Hughenden, Alberta, Canada"
4.0,2.0,1525.0,150000.0,145 2 street w ,AB,Prairie Provinces,50.0695158,-112.2681333,"2 Street West, Retlaw, Municipal District of Taber, Alberta, Canada"
3.0,1.0,950031.0,38900.0,5200 2 av e ,AB,Prairie Provinces,50.5628324,-111.883414,"2 Avenue E, Brooks, City of Brooks, Alberta, T1R 1L2, Canada"
2.0,1.0,924.0,115000.0,328 cottonwood drive ,AB,Prairie Provinces,50.393563,-113.2647967,"Cottonwood Drive, Vulcan, Town of Vulcan, Alberta, T0L 2B0, Canada"
3.0,2.0,951.0,179000.0,207 6th ave w ,AB,Prairie Provinces,51.6456637,-111.9344977,"6th Avenue West, Hanna, Alberta, T0J 1P0, Canada"
1.0,1.0,1344.0,149999.0,101 main street ,AB,Prairie Provinces,53.541588,-113.9029107,"Elation Glass & Vape, 101, Main Street, Shep Industrial, City Centre, City of Spruce Grove, Stony Plain (town), Alberta, T7X 3X2, Canada"
4.0,2.0,1966.0,129000.0,111 4 avenue e ,AB,Prairie Provinces,50.5661379,-111.8864102,"4 Avenue East, Brooks, City of Brooks, Alberta, T1R 1B2, Canada"
2.0,1.0,910.0,39900.0,99 parkside drive ,AB,Prairie Provinces,52.291156,-113.824451,"99, Parkside Drive, City of Red Deer, Red Deer (city), Alberta, T4P 3M1, Canada"
3.0,1.0,1207.0,147500.0,16 railway avenue e ,AB,Prairie Provinces,50.5533003,-111.8754574,"Railway Avenue E, Brooks, City of Brooks, Alberta, T1R 1L2, Canada"
4.0,2.0,651.0,149900.0,308 fowler street ,AB,Prairie Provinces,51.4993044,-113.5128813,"Fowler Street, Acme, Alberta, T0M 0A0, Canada"
3.0,3.0,1280.0,190000.0,20 cochrane street ,AB,Prairie Provinces,52.5132547,-110.9631314,"Cochrane Street, Village of Hughenden, Alberta, Canada"
3.0,1.0,1200.0,164900.0,5027 60 street ,AB,Prairie Provinces,54.7201243,-113.3011221,"60 Street, Town of Athabasca, Alberta, T9S 3A3, Canada"
4.0,3.0,1188.0,199000.0,4615 49 street ,AB,Prairie Provinces,52.26789525,-113.8039196,"4615, 49 Street, City of Red Deer, Red Deer (city), Alberta, T4N 7C1, Canada"
3.0,1.0,1384.0,165000.0,5102 53 avenue ,AB,Prairie Provinces,52.6793213,-113.5770178,"5102, 53 Avenue, Ponoka, Alberta, T4J 1H7, Canada"
2.0,1.0,107188.0,135000.0,8 westover crescent w ,AB,Prairie Provinces,50.0175176,-113.5929258,"Westover Crescent, Claresholm, Towns of Claresholm, Alberta, T0L 0T0, Canada"
3.0,1.0,841.0,194300.0,5813 54 street ,AB,Prairie Provinces,52.68522388,-113.58332242,"5813, 54 Street, Ponoka, Alberta, T4J 1M1, Canada"
2.0,2.0,1091.0,199900.0,610 5 avenue ,AB,Prairie Provinces,54.1564685,-113.1328819,"610, 5 Avenue, Thorhild, Thorhild County, Alberta, T0A 3J0, Canada"
1.0,1.0,645.0,64800.0,9707 100 avenue ,AB,Prairie Provinces,55.17061665231788,-118.80557877704194,"9707, 100 Avenue, Central Business District, Grande Prairie, Grande Prairie (city), Alberta, T8V 0V2, Canada"
3.0,2.0,905.0,199000.0,4021 57 street ,AB,Prairie Provinces,52.31676785,-112.71489836306417,"4021, 57 Street, Stettler, Town of Stettler, Alberta, T0C 2L1, Canada"
3.0,1.0,767.0,141500.0,5242 50 street ,AB,Prairie Provinces,53.26715141176471,-113.55266570588236,"5242, 50 Street, City of Leduc, Alberta, T9E 6X3, Canada"
4.0,2.0,1071.0,109900.0,5008 oxford avenue ,AB,Prairie Provinces,52.2831551,-113.8390891,"Oxford Avenue, City of Red Deer, Red Deer (city), Alberta, T4N 6V9, Canada"
2.0,1.0,108193.0,135000.0,707 12a street n ,AB,Prairie Provinces,49.7132938,-112.828854,"12A Street N, St. Edwards, Lethbridge, Alberta, T1H 1E9, Canada"
3.0,2.0,1152.0,97500.0,17 north loop ,AB,Prairie Provinces,53.8646327,-113.3298921,"North Loop, Sturgeon County, Alberta, T0A 1N0, Canada"
3.0,1.0,1040.0,69000.0,5020 48 street ,AB,Prairie Provinces,53.2817109,-110.0077211,"5020, 48 Street, City of Lloydminster, Alberta, S9V 0K8, Canada"
3.0,1.0,944.0,169888.0,5128 53 avenue ,AB,Prairie Provinces,53.95578532631871,-113.11783863203776,"5128, 53 Avenue, Redwater, Town of Redwater, Alberta, T0A 2W0, Canada"
2.0,2.0,1012.0,142900.0,303 2 street w ,AB,Prairie Provinces,50.0695158,-112.2681333,"2 Street West, Retlaw, Municipal District of Taber, Alberta, Canada"
4.0,1.0,764.0,79900.0,214 6 avenue w ,AB,Prairie Provinces,55.2150952,-119.4333533,"6 Avenue West, Beaverlodge, Town of Beaverlodge, Alberta, T0H 0C0, Canada"
3.0,1.0,1025.0,119000.0,9820 102 avenue ,AB,Prairie Provinces,54.15166304,-113.8547635,"9820, 102 Avenue, Westlock, Town of Westlock, Alberta, T7P 2G6, Canada"
3.0,2.0,1116.0,81900.0,54 parkside drive ,AB,Prairie Provinces,52.291413,-113.82274214285717,"54, Parkside Drive, City of Red Deer, Red Deer (city), Alberta, T4N 4K9, Canada"
3.0,1.0,601.0,149500.0,1243 queen street se ,AB,Prairie Provinces,50.0357354,-110.6651639,"Queen Street Southeast, Medicine Hat, Medicine Hat (city), Alberta, T1A 8J4, Canada"
2.0,2.0,880495.0,138000.0,125 1st st w ,AB,Prairie Provinces,53.3935052,-110.5417936,"1st Street West, Islay, County of Vermilion River, Alberta, Canada"
2.0,1.0,696.0,99900.0,5124 53 street ,AB,Prairie Provinces,52.46571314285714,-113.735573,"5124, 53 Street, City of Lacombe, Alberta, T4L 1W8, Canada"
2.0,2.0,560.0,149900.0,5821 52 avenue ,AB,Prairie Provinces,52.2775165,-113.8167035,"5821, 52 Avenue, City of Red Deer, Red Deer (city), Alberta, T4N 4C2, Canada"
2.0,2.0,736.0,169900.0,5409 49 avenue ,AB,Prairie Provinces,54.7195257,-113.2922184,"5409, 49 Avenue, Town of Athabasca, Alberta, T9S 1S8, Canada"
2.0,1.0,851432.0,159900.0,4804 52 street ,AB,Prairie Provinces,54.718002,-113.2887718,"4804, 52 Street, Town of Athabasca, Alberta, T9S 1S8, Canada"
3.0,2.0,1520.0,110000.0,37 henke place ,AB,Prairie Provinces,54.1433812,-115.6609456,"Henke Place, Valley District, Whitecourt, Alberta, T7S 1P8, Canada"
4.0,3.0,1376.0,169000.0,4927 parkview drive ,AB,Prairie Provinces,53.0064205,-112.8357382,"Parkview Drive, Marler, Camrose, Alberta, T4V 4E3, Canada"
3.0,1.0,980.0,47500.0,43 westwood court ,AB,Prairie Provinces,52.01977023658948,-113.96394848987669,"43, Westwood Court, Innisfail, Town of Innisfail, Alberta, T4G 1S1, Canada"
2.0,1.0,800.0,69900.0,19 1 street north ,AB,Prairie Provinces,53.5174369,-110.3290353,"19, 1 Street North, Village of Marwayne, County of Vermilion River, Alberta, T0B 2X0, Canada"
3.0,2.0,1501578.0,139000.0,4609 snowbird ln ,AB,Prairie Provinces,54.4252303,-110.1953897,"Snowbird Lane, Cold Lake South, City of Cold Lake, Alberta, T9M 1R5, Canada"
2.0,2.0,1217.0,174900.0,5210 52 street ,AB,Prairie Provinces,51.79143185,-114.11134912054246,"5210, 52 Street, Olds, Town of Olds, Alberta, T4H 1H7, Canada"
2.0,1.0,924.0,99500.0,19 1 street s ,AB,Prairie Provinces,53.51615198,-110.32683088,"19, 1 Street South, Village of Marwayne, County of Vermilion River, Alberta, T0B 2X0, Canada"
3.0,2.0,152795.0,145000.0,5905 primrose rd ,AB,Prairie Provinces,54.4259084,-110.1954007,"Primrose Road, Cold Lake South, City of Cold Lake, Alberta, T9M 1R5, Canada"
2.0,2.0,1524.0,109900.0,307 3 avenue w ,AB,Prairie Provinces,50.5681456,-111.9018557,"3 Avenue W, Brooks, City of Brooks, Alberta, T1R 0E8, Canada"
4.0,2.0,960.0,180000.0,105 5 avenue sw ,AB,Prairie Provinces,51.0486944,-114.0734709,"5 Avenue SW, Eau Claire, Calgary, Alberta, T2P 3R7, Canada"
4.0,2.0,906.0,159900.0,4829 52 avenue ,AB,Prairie Provinces,53.8989934,-110.8981964,"4829, 52 Avenue, Elk Point, Town of Elk Point, Alberta, T0A 0B9, Canada"
2.0,1.0,803.0,64000.0,39  rydberg ,AB,Prairie Provinces,52.5110346,-110.9645773,"Rydberg Street, Village of Hughenden, Alberta, Canada"
3.0,2.0,1120.0,129900.0,207 7 avenue e ,AB,Prairie Provinces,49.8696363,-111.3678895,"7 Avenue East, Bow Island, Town of Bow Island, Alberta, T0K 0G0, Canada"
2.0,1.0,804.0,105000.0,5705 51 avenue ,AB,Prairie Provinces,52.3269085,-112.71632705259644,"5705, 51 Avenue, Stettler, Town of Stettler, Alberta, T0L 2L2, Canada"
4.0,2.0,989.0,199888.0,3729 45 street ,AB,Prairie Provinces,52.263933625,-113.784761625,"3729, 45 Street, City of Red Deer, Red Deer (city), Alberta, T4N 6R9, Canada"
2.0,2.0,1336.0,149900.0,830 5 street se ,AB,Prairie Provinces,50.06501342424242,-110.7820246939394,"830, 5 Street Southeast, Redcliff, Medicine Hat (city), Alberta, T0J 2P0, Canada"
3.0,2.0,1088.0,199000.0,29 westmount dr ,AB,Prairie Provinces,51.0423241,-113.4061509,"Westmount Drive, Westmount, Strathmore, Alberta, T1P 1H8, Canada"
3.0,2.0,1026.0,164900.0,123 2 street ,AB,Prairie Provinces,55.3323079,-115.4315246,"123, Second Street, Kinuso, Big Lakes County, Alberta, Canada"
2.0,2.0,1087.0,129900.0,213 centre  street ,AB,Prairie Provinces,53.3390856,-113.5420908,"Centre Street, Nisku, Leduc County, Alberta, T9E 8A2, Canada"
2.0,2.0,4014.0,186000.0,204 lady vivian avenue w ,AB,Prairie Provinces,52.5132754,-111.9275903,"Lady Vivian Avenue West, Galahad, Flagstaff County, Alberta, Canada"
3.0,1.0,1071987.0,64900.0,1324 lakewood crescent ,AB,Prairie Provinces,53.5488709,-113.7032412,"Lakewood Crescent, Westview Village, Edmonton, St. Albert (city), Alberta, T5S 2C3, Canada"
3.0,2.0,1001.0,184500.0,10712 113 street ,AB,Prairie Provinces,55.1576423,-118.837965,"113 Street, Richmond Industrial Park, Grande Prairie, Grande Prairie (city), Alberta, T8W 2R2, Canada"
3.0,2.0,1216.0,179999.0,4909 parkview crescent ,AB,Prairie Provinces,54.4689088,-110.1869306,"Parkview Crescent, Cold Lake North, City of Cold Lake, Alberta, T9M 1N6, Canada"
3.0,1.0,1538.0,179000.0,5140 48 street w ,AB,Prairie Provinces,50.7901906,-114.070919,"48 Street W, Foothills County, Alberta, T0L 0X0, Canada"
2.0,1.0,733.0,160000.0,4912 48 street ,AB,Prairie Provinces,55.0678694,-117.2770392,"4912, 48 Street, Valleyview, Town of Valleyview, Alberta, T0H 0C8, Canada"
2.0,1.0,912.0,114900.0,5212 57 street ,AB,Prairie Provinces,53.35550213932201,-113.42450624514254,"5212, 57 Street, Beauridge, Beaumont, Alberta, T4X 1C4, Canada"
3.0,1.0,114031.0,194900.0,712 3 avenue nw ,AB,Prairie Provinces,55.28505213788044,-114.78244730841055,"712, 3 Avenue NW, Slave Lake, Municipal District of Lesser Slave River, Alberta, T0G 2A1, Canada"
4.0,2.0,1597.0,129900.0,4900 1 avenue ,AB,Prairie Provinces,54.4715363,-110.1986988,"1 Avenue, Cold Lake North, City of Cold Lake, Alberta, T9M 1N6, Canada"
3.0,1.0,896.0,84900.0,"18,48 avenue 18",AB,Prairie Provinces,53.94914289841159,-113.08711964013548,"18, 48 Avenue, Redwater, Town of Redwater, Alberta, T0A 2W0, Canada"
3.0,1.0,773.0,170000.0,1619 2a avenue n ,AB,Prairie Provinces,49.7016314,-112.8340749,"2A Avenue N, Senator Buchanan, Lethbridge, Alberta, T1H 0E3, Canada"
2.0,1.0,616.0,50000.0,1 red deer avenue ,AB,Prairie Provinces,51.4714856,-112.7949875,"Red Deer Avenue, Nacmine, Drumheller, Alberta, Canada"
3.0,2.0,1087.0,155000.0,112 7 avenue e ,AB,Prairie Provinces,49.8696363,-111.3678895,"7 Avenue East, Bow Island, Town of Bow Island, Alberta, T0K 0G0, Canada"
3.0,1.0,1219992.0,79000.0,4630 windsor av ,AB,Prairie Provinces,52.092414,-111.4444873,"Windsor Avenue, Coronation, Town of Coronation, Alberta, T0C 1C0, Canada"
2.0,1.0,776.0,158500.0,5313 54 avenue ,AB,Prairie Provinces,53.52632217972466,-113.99971754130162,"5313, 54 Avenue, Forest Green, Stony Plain, Town of Stony Plain, Alberta, T7Z 1X7, Canada"
2.0,1.0,814835.0,79900.0,26510 twp rd 611 ,AB,Prairie Provinces,54.2541368,-115.2565986,"Township Road 611, Woodlands County, Alberta, Canada"
2.0,1.0,1105.0,199900.0,5110 47 street ,AB,Prairie Provinces,52.266273,-113.816269,"5110, 47 Street, City of Red Deer, Red Deer (city), Alberta, T4N 4H1, Canada"
2.0,1.0,1036.0,65000.0,302 1 avenue e ,AB,Prairie Provinces,50.5627642,-111.891077,"1 Avenue E, Brooks, City of Brooks, Alberta, T1R 1B5, Canada"
3.0,1.0,1400.0,105000.0,4407 53 street ,AB,Prairie Provinces,54.7117884,-113.292266,"53 Street, Town of Athabasca, Alberta, T9S 1A3, Canada"
3.0,2.0,840.0,199900.0,13 main street n ,AB,Prairie Provinces,55.287503,-114.77298968140394,"13, Main Street North, Slave Lake, Municipal District of Lesser Slave River, Alberta, T0G 1G1, Canada"
3.0,2.0,779959.0,199800.0,12733 117 st nw ,AB,Prairie Provinces,53.5856866,-113.52317485,"12733, 117 Street NW, Calder, Northern Mature Area, Edmonton, Edmonton (city), Alberta, T5E 5L2, Canada"
3.0,2.0,1216.0,88500.0,127 clark crescent ,AB,Prairie Provinces,55.16085113146073,-118.88739545904524,"127, Clark Crescent, County of Grande Prairie, Alberta, T8V 4Z1, Canada"
1.0,1.0,742.0,104900.0,810 6 avenue ,AB,Prairie Provinces,55.16446015,-114.0379612,"810, 6 Avenue, Smith, Municipal District of Lesser Slave River, Alberta, T0G 2B0, Canada"
2.0,1.0,982.0,134000.0,5004 50 street ,AB,Prairie Provinces,54.1191216,-114.405307,"5004, 50 Street, Town of Barrhead, Barrhead, Alberta, T7N 1A1, Canada"
3.0,1.0,972743.0,39900.0,578 evergreen st nw ,AB,Prairie Provinces,53.6309184,-113.3457515,"Evergreen Street NW, Evergreen, Horse Hill, Edmonton, Alberta, T5B 4K3, Canada"
2.0,2.0,1216.0,60000.0,89 greenwood villa ,AB,Prairie Provinces,53.55506393385436,-113.88284052741038,"89, Greenwood Drive, Brookwood, City Centre, City of Spruce Grove, Stony Plain (town), Alberta, T7X 2Y9, Canada"
1.0,1.0,940.0,199000.0,10137 94 avenue ,AB,Prairie Provinces,55.1651798,-118.8018403,"10137, 94 Avenue, Swanavon, Grande Prairie, Grande Prairie (city), Alberta, T8V 2V4, Canada"
2.0,1.0,965.0,199900.0,1504 6 avenue s ,AB,Prairie Provinces,49.6911329,-112.8366147,"6 Avenue S, Downtown, Lethbridge, Alberta, T1J 0Z4, Canada"
3.0,1.0,893412.0,84900.0,46 ridgeway dr nw ,AB,Prairie Provinces,53.502651481484,-113.35990508527976,"46, Ridgeway Drive NW, Maple Oak Ridge, South Industrial District, Edmonton, Edmonton (city), Alberta, T6P 0E4, Canada"
4.0,2.0,1013646.0,184900.0,5304 willow dr south ,AB,Prairie Provinces,54.5922298,-112.7976495,"Willow Drive South, Village of Boyle, Bondiss (summer village), Alberta, T0A 0M0, Canada"
4.0,2.0,1008.0,179000.0,511 tulip street ,AB,Prairie Provinces,50.756584,-112.0893516,"Tulip Street, Rosemary, County of Newell, Alberta, Canada"
3.0,2.0,1216.0,56900.0,49 maple drive ,AB,Prairie Provinces,53.638241,-113.6267865,"Maple Drive, St. Albert, Alberta, T8N 1E4, Canada"
3.0,2.0,1540005.0,119000.0,4510 labrador rd ,AB,Prairie Provinces,54.4272743,-110.198425,"Labrador Road, Cold Lake South, City of Cold Lake, Alberta, T9M 1R5, Canada"
5.0,3.0,1194.0,139000.0,216 3rd ave w ,AB,Prairie Provinces,51.6434978,-111.9307787,"3rd Avenue West, Hanna, Alberta, T0J 1P0, Canada"
3.0,1.0,986305.0,179900.0,3917 53a st ,AB,Prairie Provinces,52.95946808888889,-113.38246113333332,"3917, 53A Street, City of Wetaskiwin, Wetaskiwin, Alberta, T9A 1S8, Canada"
2.0,1.0,808.0,95000.0,1410 4 avenue sw ,AB,Prairie Provinces,51.0493444,-114.0629295,"4 Avenue SW, Chinatown, Calgary, Alberta, T2G 2B8, Canada"
4.0,2.0,1056.0,170000.0,5002 45 street ,AB,Prairie Provinces,52.310178,-114.090523,"5002, 45 Street, Sylvan Lake, Town of Sylvan Lake, Alberta, T4S 1S3, Canada"
3.0,1.0,1528.0,129900.0,211 5 avenue w ,AB,Prairie Provinces,50.5711253,-111.9053533,"5 Avenue West, Brooks, City of Brooks, Alberta, T1R 0V4, Canada"
3.0,2.0,1216.0,94900.0,321 scott lane ,AB,Prairie Provinces,55.1626748760461,-118.88738422138778,"321, Scott Lane, County of Grande Prairie, Alberta, T8V 4Z1, Canada"
6.0,2.0,1234.0,159900.0,4508 52 street ,AB,Prairie Provinces,53.2613625,-113.5577875,"4508, 52 Street, City of Leduc, Alberta, T9E 5E7, Canada"
3.0,3.0,1196.0,159500.0,309 1st ave west ,AB,Prairie Provinces,51.6407581,-111.9347146,"1st Avenue West, Hanna, Alberta, T0J 1P0, Canada"
3.0,1.0,886.0,109900.0,4402 48 avenue ,AB,Prairie Provinces,53.3511869,-113.4073479,"4402, 48 Avenue, Beau Meadow, Beaumont, Alberta, T4X 0G4, Canada"
4.0,2.0,1520.0,97500.0,154 pickles crossing ,AB,Prairie Provinces,55.16211263333333,-118.89064053333333,"154, Pickles Crossing, County of Grande Prairie, Alberta, T8V 4Z1, Canada"
2.0,2.0,804.0,195000.0,4715 49 avenue ,AB,Prairie Provinces,52.266786,-113.81129985714286,"4715, 49 Avenue, City of Red Deer, Red Deer (city), Alberta, T4N 3W7, Canada"
2.0,2.0,194796.0,144000.0,405 swedberg street ,AB,Prairie Provinces,52.9594513,-114.0057554,"Swedberg Street, County of Wetaskiwin, Alberta, T0C 2V0, Canada"
2.0,1.0,800.0,107000.0,21  dunmore street ,AB,Prairie Provinces,49.9572691,-110.2745639,"Dunmore Street, Irvine, Cypress County, Alberta, Canada"
2.0,1.0,655205.0,158900.0,12121 65 st nw ,AB,Prairie Provinces,53.57563414642857,-113.4412147,"12121, 65 Street NW, Montrose, Greater Highlands, Avenue District, Edmonton, Edmonton (city), Alberta, T5W 4C2, Canada"
3.0,2.0,1229249.0,57400.0,2628 lakeview pl nw ,AB,Prairie Provinces,53.5503265,-113.696584,"2628, Lakeview Place NW, Westview Village, Edmonton, St. Albert (city), Alberta, T5S 2C3, Canada"
2.0,1.0,1100.0,143000.0,218 railway avenue n ,AB,Prairie Provinces,53.51929402307693,-110.3293044846154,"218, Railway Avenue North, Village of Marwayne, County of Vermilion River, Alberta, T0B 2X0, Canada"
4.0,2.0,1627.0,135000.0,375 3 avenue w ,AB,Prairie Provinces,50.5681456,-111.9018557,"3 Avenue W, Brooks, City of Brooks, Alberta, T1R 0E8, Canada"
4.0,2.0,77322.0,179900.0,310 2 street ne ,AB,Prairie Provinces,50.07238780043104,-110.78645508125,"310, 2 Street Northeast, Redcliff, Medicine Hat (city), Alberta, T0J 2P0, Canada"
2.0,1.0,768.0,176900.0,5231 49 street ,AB,Prairie Provinces,52.4673494137931,-113.72904810344828,"5231, 49 Street, City of Lacombe, Alberta, T0C 1S0, Canada"
2.0,1.0,1188.0,199000.0,5601 50 avenue ,AB,Prairie Provinces,53.3522683,-113.4224694,"5601, 50 Avenue, Goudreau Terrace, Beaumont, Alberta, T4X 1C4, Canada"
3.0,2.0,1463904.0,199000.0,421076 rr 95 ,AB,Prairie Provinces,52.83750975,-118.06088115025256,"RR, Municipality of Jasper, Alberta, Canada"
2.0,1.0,1162512.0,49900.0,177 willow creek st ,AB,Prairie Provinces,54.113074,-112.4750749,"Willow Creek Street, Smoky Lake, Town of Smoky Lake, Alberta, T0A 3C0, Canada"
2.0,1.0,900.0,179900.0,128 3 avenue nw ,AB,Prairie Provinces,51.0598434,-114.1407656,"3 Avenue NW, Parkdale, Calgary, Alberta, T2N 3C1, Canada"
4.0,2.0,1658.0,173000.0,5211 52 street ,AB,Prairie Provinces,52.6424511,-114.2440271,"5211, 52 Street, Rimbey, Alberta, T0C 2J0, Canada"
3.0,4.0,1496627.0,189900.0,5015 50 street ,AB,Prairie Provinces,52.6768226,-113.5753957,"5015, 50 Street, Ponoka, Alberta, T4J 1B5, Canada"
3.0,1.0,1140.0,138999.0,10 w 1 avenue ,AB,Prairie Provinces,53.66625182296418,-113.54794964749306,"10, 1 Avenue, Northpoint, Sturgeon County, Alberta, T6V 1B1, Canada"
3.0,2.0,1200.0,178000.0,10115 106 avenue ,AB,Prairie Provinces,55.176085013333335,-118.79939067333332,"10115, 106 Avenue, Avondale, Grande Prairie, Grande Prairie (city), Alberta, T8V 2M2, Canada"
3.0,2.0,849.0,119900.0,5006 52 street ,AB,Prairie Provinces,52.3263324,-112.7085509,"5006, 52 Street, Stettler, Town of Stettler, Alberta, T0C 2L1, Canada"
6.0,2.0,2979.0,174900.0,5228 56 avenue ,AB,Prairie Provinces,52.364759,-114.375508,"5228, 56 Avenue, Eckville, Alberta, T0M 0X0, Canada"
3.0,2.0,1341.0,125000.0,4916 53 street ,AB,Prairie Provinces,52.9700857,-113.3809943,"4916, 53 Street, City of Wetaskiwin, Wetaskiwin, Alberta, T9A 0T1, Canada"
3.0,2.0,1087272.0,88900.0,48 rim rd nw ,AB,Prairie Provinces,53.50187999784178,-113.35767522547964,"48, Rim Road NW, Maple Oak Ridge, South Industrial District, Edmonton, Edmonton (city), Alberta, T6P 1R3, Canada"
3.0,2.0,925.0,189000.0,5113 52 avenue ,AB,Prairie Provinces,53.181326,-114.3221381,"5113, 52 Avenue, Warburg, Breton (village), Alberta, T0C 2T0, Canada"
4.0,1.0,1183.0,89900.0,5409 51 street ,AB,Prairie Provinces,51.7925687,-114.11498015,"5409, 51 Street, Olds, Town of Olds, Alberta, T4H 1A0, Canada"
2.0,1.0,905.0,137000.0,4808 52 avenue ,AB,Prairie Provinces,55.07116015,-117.27798492583946,"4808, 52 Avenue, Valleyview, Town of Valleyview, Alberta, T0H 0C8, Canada"
2.0,1.0,1086.0,122000.0,1102 railway avenue ,AB,Prairie Provinces,54.3743518,-113.4567061,"Railway Avenue, Rochester, Athabasca County, Alberta, T0G 1Z0, Canada"
3.0,2.0,940.0,149000.0,5407 45 street ,AB,Prairie Provinces,54.1248981,-114.3922917,"5407, 45 Street, Town of Barrhead, Barrhead, Alberta, T7N 1M1, Canada"
5.0,2.0,1048.0,189900.0,5703 42 avenue ,AB,Prairie Provinces,52.3162558,-112.71531625266891,"5703, 42 Avenue, Stettler, Town of Stettler, Alberta, T0C 2L1, Canada"
3.0,1.0,732.0,149000.0,118 centre street ,AB,Prairie Provinces,53.5156381,-110.3312016,"118, Centre Street, Village of Marwayne, County of Vermilion River, Alberta, T0B 2X0, Canada"
4.0,2.0,1120.0,199900.0,4803 55 avenue ,AB,Prairie Provinces,52.46980463157895,-113.72815887719298,"4803, 55 Avenue, City of Lacombe, Alberta, T0C 1S0, Canada"
3.0,1.0,1172.0,195000.0,10705 107 ave. ,AB,Prairie Provinces,55.1768632,-118.8221796,"107 Avenue, Gateway, Grande Prairie, Grande Prairie (city), Alberta, T8V 7Y5, Canada"
2.0,1.0,956.0,89900.0,303 1 avenue n ,AB,Prairie Provinces,51.0554176,-114.0804857,"1 Avenue NW, Sunnyside, Calgary, Alberta, T2N 0A2, Canada"
2.0,1.0,779.0,74900.0,518 3 street w ,AB,Prairie Provinces,50.5811745,-111.899913,"3 Street W, Brooks, City of Brooks, Alberta, T1R 0N9, Canada"
3.0,1.0,1080.0,55000.0,117 1st ave se ,AB,Prairie Provinces,51.5890676,-113.4842178,"1st Avenue SE, Village of Linden, Linden, Alberta, T0M 0B5, Canada"
2.0,1.0,663.0,89900.0,313 5 avenue e ,AB,Prairie Provinces,50.5706961,-111.8939825,"5 Avenue East, Brooks, City of Brooks, Alberta, T1R 0A6, Canada"
4.0,2.0,1387.0,175000.0,732 12c street n ,AB,Prairie Provinces,49.707442,-112.8255534,"12C Street N, Senator Buchanan, Lethbridge, Alberta, T1H 2T2, Canada"
4.0,3.0,1684.0,118118.0,601 6 avenue w ,AB,Prairie Provinces,55.2150952,-119.4333533,"6 Avenue West, Beaverlodge, Town of Beaverlodge, Alberta, T0H 0C0, Canada"
1.0,1.0,468987.0,100000.0,125 lakeshore dr ,AB,Prairie Provinces,54.6511201,-112.7067583,"Lakeshore Drive, Athabasca County, Alberta, Canada"
3.0,2.0,1216.0,149000.0,4718 49 street ,AB,Prairie Provinces,51.7921802,-114.09919606945624,"4718, 49 Street, Olds, Town of Olds, Alberta, T4H 1S2, Canada"
2.0,1.0,895.0,168000.0,5121 55 avenue ,AB,Prairie Provinces,52.97368252280702,-113.37607449649124,"5121, 55 Avenue, City of Wetaskiwin, Wetaskiwin, Alberta, T9A 1A5, Canada"
2.0,2.0,928.0,169900.0,231 1 street w ,AB,Prairie Provinces,50.0691345,-112.2651468,"1 Street West, Retlaw, Municipal District of Taber, Alberta, Canada"
2.0,1.0,700.0,68000.0,5034 54 street ,AB,Prairie Provinces,52.67812674583333,-113.58362655,"5034, 54 Street, Ponoka, Alberta, T4J 1H7, Canada"
4.0,2.0,940.0,135000.0,5205 48 street ,AB,Prairie Provinces,53.2678582,-113.8018203,"5205, 48 Street, Calmar, Alberta, T0C 0V0, Canada"
3.0,2.0,912.0,92500.0,4442 park crescent ,AB,Prairie Provinces,54.3591557,-110.0772183,"Park Crescent, Cherry Grove, Municipal District of Bonnyville, Alberta, Canada"
3.0,2.0,1540005.0,139500.0,5804 labrador rd ,AB,Prairie Provinces,54.4272743,-110.198425,"Labrador Road, Cold Lake South, City of Cold Lake, Alberta, T9M 1R5, Canada"
3.0,1.0,759.0,174900.0,1619 8 avenue n ,AB,Prairie Provinces,51.0597839,-114.0650365,"8 Avenue NW, Crescent Heights, Calgary, Alberta, T2E 2P7, Canada"
3.0,1.0,904.0,58000.0,10620 102 avenue ,AB,Prairie Provinces,55.1722715,-118.7653764,"102 Avenue, Ivy Lake Estates, Grande Prairie, Grande Prairie (city), Alberta, T8V 6A3, Canada"
3.0,3.0,1580.0,179900.0,4520 50 street ,AB,Prairie Provinces,52.30244815,-114.10172560511975,"H.J. Cody School, 4520, 50 Street, Sylvan Lake, Town of Sylvan Lake, Alberta, T4S 1A4, Canada"
5.0,2.0,1023.0,169900.0,5011 cote ave ,AB,Prairie Provinces,55.7267666,-117.0997273,"Cote Avenue, Village of Donnelly, Alberta, Canada"
2.0,1.0,864.0,109900.0,550 3 avenue w ,AB,Prairie Provinces,50.5681456,-111.9018557,"3 Avenue W, Brooks, City of Brooks, Alberta, T1R 0E8, Canada"
3.0,3.0,1022.0,160000.0,4613 50 street ,AB,Prairie Provinces,51.7903896,-114.09723399062862,"4613, 50 Street, Olds, Town of Olds, Alberta, T5H 1J1, Canada"
4.0,2.0,1026.0,165000.0,5014 47 street ,AB,Prairie Provinces,52.327027650000005,-112.7012456,"5014, 47 Street, Stettler, Town of Stettler, Alberta, T0C 2L1, Canada"
3.0,2.0,602.0,99000.0,329 dufferin street ,AB,Prairie Provinces,53.6482732,-113.6524633,"Dufferin Street, St. Albert, Alberta, T8N 6J8, Canada"
2.0,1.0,1112.0,129000.0,409 haultain avenue ,AB,Prairie Provinces,52.671045,-112.2257246,"Haultain Avenue, Village of Heisler, Alberta, Canada"
3.0,2.0,1476713.0,159900.0,1908 jubilee rd ,AB,Prairie Provinces,53.5662978,-113.2623906,"Jubilee Road, Lakeland Village, Sherwood Park, Strathcona County, Alberta, T8H 0P1, Canada"
3.0,1.0,972.0,59900.0,322 7 avenue se ,AB,Prairie Provinces,51.0464915,-113.9716078,"7 Avenue SE, Forest Heights, Calgary, Alberta, T2A 1N3, Canada"
2.0,1.0,733.0,174900.0,4510 50 avenue ,AB,Prairie Provinces,52.463245,-113.724259,"4510, 50 Avenue, City of Lacombe, Alberta, T4L 2B6, Canada"
2.0,1.0,777268.0,69900.0,5014 50 ,AB,Prairie Provinces,52.4631756,-113.2195663,"50, Lacombe County, Alberta, T0B 3C0, Canada"
2.0,2.0,992.0,89900.0,9 davio place ,AB,Prairie Provinces,54.1441877,-115.6607206,"Davio Place, Valley District, Whitecourt, Alberta, T7S 1P8, Canada"
4.0,2.0,1085.0,155000.0,436 2 street w ,AB,Prairie Provinces,50.0695158,-112.2681333,"2 Street West, Retlaw, Municipal District of Taber, Alberta, Canada"
3.0,2.0,876.0,159900.0,1308 railway avenue ,AB,Prairie Provinces,54.3743518,-113.4567061,"Railway Avenue, Rochester, Athabasca County, Alberta, T0G 1Z0, Canada"
2.0,2.0,1016.0,199000.0,5210 51 avenue ,AB,Prairie Provinces,54.7218612996352,-113.2990907569134,"5210, 51 Avenue, Town of Athabasca, Alberta, T9S 1G8, Canada"
6.0,3.0,1829988.0,185000.0,725 2nd st ,AB,Prairie Provinces,50.0967358,-111.7992294,"2nd Street, Hays, Municipal District of Taber, Alberta, Canada"
4.0,2.0,918.0,140500.0,4708 54 ave ,AB,Prairie Provinces,52.972344,-113.3676973,"4708, 54 Avenue, City of Wetaskiwin, Wetaskiwin, Alberta, T9A 0T5, Canada"
3.0,3.0,1100.0,164900.0,5113 58 street ,AB,Prairie Provinces,54.12160427647059,-114.41670981764706,"5113, 58 Street, Town of Barrhead, Barrhead, Alberta, T7N 1A3, Canada"
3.0,2.0,1378.0,169900.0,10701 104 avenue ,AB,Prairie Provinces,55.17441860046725,-118.81721262102609,"10701, 104 Avenue, Grande Prairie, Grande Prairie (city), Alberta, T8V 7B1, Canada"
1.0,1.0,732.0,89700.0,130 2 avenue ,AB,Prairie Provinces,54.15338254825291,-113.13434759201331,"130, 2 Avenue, Thorhild, Thorhild County, Alberta, T0A 3J0, Canada"
2.0,2.0,1332153.0,157500.0,1666 jubilee cr ,AB,Prairie Provinces,53.5632847,-113.2639455,"Jubilee Crescent, Jubilee Landing, Sherwood Park, Strathcona County, Alberta, T8H 0P1, Canada"
5.0,2.0,1166.0,152900.0,5020 47 street ,AB,Prairie Provinces,53.280816,-110.0077335,"5020, 47 Street, City of Lloydminster, Lloydminster (city), Alberta, T9V 0G1, Canada"
4.0,2.0,731.0,189900.0,5710 56 avenue ,AB,Prairie Provinces,52.2762878,-113.823029,"5710, 56 Avenue, City of Red Deer, Red Deer (city), Alberta, T4N 4M6, Canada"
1.0,1.0,672.0,49000.0,36 mckenzie avenue ,AB,Prairie Provinces,52.5122928,-110.9631322,"Mckenzie Avenue, Village of Hughenden, Alberta, Canada"
3.0,2.0,1520.0,105000.0,51 keystone crossing ,AB,Prairie Provinces,53.26097478919687,-113.59714025543096,"51, Keystone Crescent, City of Leduc, Alberta, T9E 0J5, Canada"
4.0,2.0,1209.0,174900.0,417 2 avenue w ,AB,Prairie Provinces,50.5669801,-111.9057279,"2 Avenue W, Brooks, City of Brooks, Alberta, T1R 0E8, Canada"
3.0,2.0,1152.0,104900.0,2924 29 street s ,AB,Prairie Provinces,49.679136,-112.7994091,"29 Street S, Lakeview, Lethbridge, Alberta, T1K 2R4, Canada"
2.0,1.0,970.0,110000.0,5018 49 street ,AB,Prairie Provinces,53.2654862,-113.5504501,"5018, 49 Street, City of Leduc, Alberta, T9E 6X9, Canada"
2.0,1.0,1049.0,90000.0,310 2 street ,AB,Prairie Provinces,54.15654501395349,-113.1258498872093,"310, 2 Street, Thorhild, Thorhild County, Alberta, T0A 3J0, Canada"
3.0,1.0,920.0,69000.0,402 1st ave w ,AB,Prairie Provinces,51.6407581,-111.9347146,"1st Avenue West, Hanna, Alberta, T0J 1P0, Canada"
3.0,3.0,1432.0,138000.0,106 george street ,AB,Prairie Provinces,53.5624223,-113.8655889,"George Street, Greenbury, City of Spruce Grove, Stony Plain (town), Alberta, T7X 0M6, Canada"
2.0,1.0,864.0,79900.0,10912 102 ave. ,AB,Prairie Provinces,55.1722715,-118.7653764,"102 Avenue, Ivy Lake Estates, Grande Prairie, Grande Prairie (city), Alberta, T8V 6A3, Canada"
3.0,1.0,1320.0,99500.0,205 1 avenue e ,AB,Prairie Provinces,50.5627642,-111.891077,"1 Avenue E, Brooks, City of Brooks, Alberta, T1R 1B5, Canada"
3.0,1.0,1074.0,139900.0,11216 105 avenue ,AB,Prairie Provinces,58.1915639,-116.409349,"105 Avenue, La Crete, Mackenzie County, Alberta, T0H 2H0, Canada"
2.0,2.0,1303.0,197000.0,410 grand avenue ,AB,Prairie Provinces,50.1273957,-113.1128251,"Grand Avenue, Village of Carmangay, Alberta, Canada"
2.0,1.0,878.0,145000.0,4814 54 avenue ,AB,Prairie Provinces,53.2694533,-113.8030681,"4814, 54 Avenue, Calmar, Alberta, T0C 0V0, Canada"
2.0,1.0,750.0,119900.0,812 6th avenue ,AB,Prairie Provinces,51.039994,-113.3932786,"6th Avenue, Downtown, Strathmore, Alberta, T1P 1B6, Canada"
1.0,1.0,897.0,70000.0,4901 53 avenue ,AB,Prairie Provinces,53.5270744,-114.0039847,"4901, 53 Avenue, Old Town Stony Plain, Stony Plain, Town of Stony Plain, Alberta, T7Z 1X7, Canada"
3.0,2.0,1499963.0,155000.0,5803 primrose rd ,AB,Prairie Provinces,54.4259084,-110.1954007,"Primrose Road, Cold Lake South, City of Cold Lake, Alberta, T9M 1R5, Canada"
3.0,1.0,1142.0,199000.0,357 e 400 n ,AB,Prairie Provinces,49.4696283,-112.6670626,"400 North, Raymond, Town of Raymond, Alberta, T0K 2S0, Canada"
3.0,1.0,1055948.0,179900.0,4535 47 street ,AB,Prairie Provinces,52.302989,-114.091898,"4535, 47 Street, Sylvan Lake, Town of Sylvan Lake, Alberta, T4S 1S3, Canada"
2.0,1.0,805.0,49900.0,204 1 avenue e ,AB,Prairie Provinces,50.5627642,-111.891077,"1 Avenue E, Brooks, City of Brooks, Alberta, T1R 1B5, Canada"
2.0,2.0,8275.0,159900.0,4932 46 street ,AB,Prairie Provinces,52.023843750000005,-113.949663375,"4932, 46 Street, Innisfail, Town of Innisfail, Alberta, T4G 1S1, Canada"
3.0,2.0,1280.0,99900.0,9 pinewood drive drive ,AB,Prairie Provinces,51.0956836,-115.35995899690056,"9, Pinewood Crescent, Canmore, Town of Canmore, Alberta, T1W 1P6, Canada"
3.0,2.0,925.0,130000.0,9510 86 ave ,AB,Prairie Provinces,56.24794420502608,-117.29941181146448,"9510, 86 Avenue, Peace River, Alberta, T8S 1G4, Canada"
3.0,1.0,1473.0,99900.0,214 4 avenue w ,AB,Prairie Provinces,50.5701856,-111.904653,"4 Avenue West, Brooks, City of Brooks, Alberta, T1R 0V4, Canada"
1.0,1.0,132269.0,175000.0,4820 50 avenue ,AB,Prairie Provinces,53.2649032,-113.5500864,"4820, 50 Avenue, City of Leduc, Alberta, T9E 6X9, Canada"
2.0,1.0,712254.0,179900.0,12114 85 st nw ,AB,Prairie Provinces,53.57545926428571,-113.47100177857143,"12114, 85 Street NW, Eastwood, Avenue District, Edmonton, Edmonton (city), Alberta, T5B 1G1, Canada"
4.0,3.0,1637.0,198000.0,5217 50 ave ,AB,Prairie Provinces,53.4970782,-112.05912122683122,"5217, 50 Avenue, Vegreville, Town of Vegreville, Alberta, T9C 1R6, Canada"
3.0,2.0,1593.0,175000.0,5106 52 street ,AB,Prairie Provinces,53.55800648,-114.47330334,"5106, 52 Street, Wabamun, Alberta, T0E 2K0, Canada"
2.0,1.0,859.0,179900.0,4213 51a street ,AB,Prairie Provinces,52.2694368,-113.795216,"4213, 51a Street, City of Red Deer, Red Deer (city), Alberta, T4N 7C1, Canada"
2.0,1.0,798796.0,69900.0,19 1 st n ,AB,Prairie Provinces,53.5174369,-110.3290353,"19, 1 Street North, Village of Marwayne, County of Vermilion River, Alberta, T0B 2X0, Canada"
3.0,2.0,1134.0,177000.0,1008 3rd avenue ,AB,Prairie Provinces,50.097324,-111.7917036,"3rd Avenue, Hays, Municipal District of Taber, Alberta, Canada"
4.0,3.0,2378.0,130000.0,324 4 street se ,AB,Prairie Provinces,51.0425816,-114.0534346,"4 Street SE, Victoria Park, Downtown East Village, Calgary, Alberta, T2G 1R1, Canada"
3.0,1.0,1088.0,53000.0,"78, 42 street ",AB,Prairie Provinces,54.7185575,-113.2712501,"42 Street, Town of Athabasca, Alberta, T9S 1R3, Canada"
2.0,1.0,68091.0,90000.0,236 first avenue w ,AB,Prairie Provinces,52.4501352,-112.5735671,"First Avenue West, Red Willow, County of Stettler, Alberta, Canada"
1.0,1.0,462.0,35000.0,10104 99 street ,AB,Prairie Provinces,55.19702613045515,-118.79173344941056,"10104, 99 Street, Northgate, Grande Prairie, Grande Prairie (city), Alberta, T8V 4H4, Canada"
2.0,1.0,851971.0,179900.0,149 9 street south ,AB,Prairie Provinces,53.5517562,-114.7366415,"9 Street South, Summer Village of Seba Beach, Alberta, Canada"
2.0,1.0,908.0,69900.0,314 7 avenue w ,AB,Prairie Provinces,49.8673424,-111.3819332,"7 Avenue West, Bow Island, Town of Bow Island, Alberta, T0K 0G0, Canada"
2.0,1.0,7265.0,185000.0,9308 105 avenue ,AB,Prairie Provinces,55.175299054545455,-118.77496230909092,"9308, 105 Avenue, Hillside, Grande Prairie, Grande Prairie (city), Alberta, T8V 1R2, Canada"
3.0,1.0,1008.0,159900.0,1010 main avenue e ,AB,Prairie Provinces,51.7966449,-114.6365106,"Main Avenue East, Sundre, Town of Sundre, Alberta, T0M 1X0, Canada"
2.0,1.0,64433.0,166900.0,9304 106 avenue ,AB,Prairie Provinces,55.17628119424417,-118.7920869354741,"9304, 106 Avenue, Grande Prairie, Grande Prairie (city), Alberta, T8V 2M2, Canada"
2.0,1.0,1008.0,179900.0,9710 99 avenue ,AB,Prairie Provinces,53.8002842,-113.6395391,"9710, 99 Avenue, Notre Dame, Morinville, Alberta, T8R 0B5, Canada"
5.0,3.0,1144.0,162000.0,16 hillside avenue ,AB,Prairie Provinces,49.1692652,-113.4545371,"Hillside Avenue, Leavitt, Cardston County, Alberta, Canada"
3.0,2.0,968.0,154900.0,113 railway avenue ,AB,Prairie Provinces,53.007414483333335,-113.05832856666666,"113, Railway Avenue, Village of Bittern Lake, Alberta, Canada"
3.0,2.0,693.0,127900.0,401 main street ,AB,Prairie Provinces,53.19826957592593,-113.05213952037036,"401, Main Street, Village of Hay Lakes, Camrose County, Alberta, T0B 1W0, Canada"
2.0,1.0,804.0,54900.0,4907 50 street ,AB,Prairie Provinces,52.32476305,-112.70462685120528,"Leschert & Associates, 4907, 50 Street, Stettler, Town of Stettler, Alberta, T0C 2L1, Canada"
3.0,2.0,920.0,165000.0,4805 48 street ,AB,Prairie Provinces,52.9675439,-113.3702056,"4805, 48 Street, City of Wetaskiwin, Wetaskiwin, Alberta, T9A 0T5, Canada"
4.0,2.0,998.0,184000.0,5116 56 avenue ,AB,Prairie Provinces,51.79269935,-114.1177824,"5116, 56 Avenue, Olds, Town of Olds, Alberta, T4H 1B8, Canada"
3.0,2.0,890.0,125000.0,5128 51 street ,AB,Prairie Provinces,52.46553228571428,-113.732246,"5128, 51 Street, City of Lacombe, Alberta, T4L 1W8, Canada"
3.0,1.0,1191.0,169900.0,5511 51 avenue ,AB,Prairie Provinces,54.72161738665404,-113.29712786418116,"5511, 51 Avenue, Town of Athabasca, Alberta, T9S 1G8, Canada"
3.0,2.0,1075969.0,109900.0,1164 aspen drive west ,AB,Prairie Provinces,53.2534739,-113.5963015,"1164, Aspen Drive West, City of Leduc, Alberta, T9E 0J5, Canada"
4.0,2.0,2147.0,199000.0,583 main ,AB,Prairie Provinces,49.7348244,-113.2644718,"Main, Orton, Municipal District of Willow Creek, Alberta, Canada"
4.0,2.0,1136.0,127500.0,17 1 avenue ,AB,Prairie Provinces,53.46436846314177,-113.0964063304191,"17, 1 Avenue, Half Moon Lake North, Strathcona County, Alberta, T8E 2H7, Canada"
1.0,1.0,480.0,64000.0,4836 51 avenue ,AB,Prairie Provinces,54.72184803251285,-113.29903172361206,"4836, 51 Avenue, Town of Athabasca, Alberta, T9S 1G8, Canada"
4.0,1.0,1045.0,129900.0,1110 5th ave. ,AB,Prairie Provinces,53.5457722,-113.8958829,"5th Avenue, Broxton Park, City Centre, City of Spruce Grove, Stony Plain (town), Alberta, T7X 2Z1, Canada"
3.0,3.0,1886.0,150000.0,4910 51 avenue ,AB,Prairie Provinces,52.464773,-113.729411,"4910, 51 Avenue, City of Lacombe, Alberta, T4L 1W8, Canada"
3.0,2.0,860.0,179000.0,5613 50 street ,AB,Prairie Provinces,51.79393525,-114.11735056447368,"5613, 50 Street, Olds, Town of Olds, Alberta, T5H 1J1, Canada"
3.0,2.0,1536.0,135000.0,254 centre street ,AB,Prairie Provinces,53.3390856,-113.5420908,"Centre Street, Nisku, Leduc County, Alberta, T9E 8A2, Canada"
2.0,1.0,836.0,34000.0,4745 49 avenue ,AB,Prairie Provinces,53.95006193922967,-113.11005331104543,"4745, 49 Avenue, Redwater, Town of Redwater, Alberta, T0A 2W0, Canada"
2.0,1.0,744.0,119900.0,5618 51 street ,AB,Prairie Provinces,51.793511800000005,-114.11786891256314,"5618, 51 Street, Olds, Town of Olds, Alberta, T4H 1A0, Canada"
4.0,1.0,1353.0,104500.0,5301 48 street ,AB,Prairie Provinces,53.2816454,-110.01332,"5301, 48 Street, City of Lloydminster, Lloydminster (city), Alberta, T9V 0L1, Canada"
3.0,2.0,1545.0,164900.0,114 2nd avenue e ,AB,Prairie Provinces,51.6440141,-111.9231328,"2nd Avenue East, Hanna, Alberta, T0J 1P0, Canada"
3.0,2.0,918.0,184900.0,216 alberta avenue ,AB,Prairie Provinces,53.570391,-113.4857727,"118 Avenue NW, Alberta Avenue, Avenue District, Edmonton, Edmonton (city), Alberta, T5G 1C8, Canada"
1.0,2.0,967.0,199900.0,104 24 street nw ,AB,Prairie Provinces,51.0745214,-114.1178645,"24 Street NW, Banff Trail, Calgary, Alberta, T2M 4X6, Canada"
3.0,1.0,1060.0,139000.0,5720 50a avenue ,AB,Prairie Provinces,52.32628555,-112.71783405222696,"5720, 50A Avenue, Stettler, Town of Stettler, Alberta, T0L 2L2, Canada"
2.0,1.0,925919.0,174900.0,4619 50a av ,AB,Prairie Provinces,52.2600207,-113.8160073,"50A Avenue, City of Red Deer, Red Deer (city), Alberta, T4N 4E7, Canada"
3.0,2.0,1337.0,112000.0,5005 49 street ,AB,Prairie Provinces,52.463285,-113.729071,"5005, 49 Street, City of Lacombe, Alberta, T4L 1Y1, Canada"
3.0,2.0,972.0,128900.0,4843 55 avenue ,AB,Prairie Provinces,53.18377867,-114.317627128,"4843, 55 Avenue, Warburg, Breton (village), Alberta, T0C 2T0, Canada"
2.0,1.0,800.0,165000.0,4204 49 avenue ,AB,Prairie Provinces,52.32489025,-112.69258232315076,"4204, 49 Avenue, Stettler, Town of Stettler, Alberta, T0C 2L1, Canada"
4.0,2.0,1013.0,195000.0,1806 22 avenue ,AB,Prairie Provinces,52.19424101449275,-113.23425960869564,"1806, 22 Avenue, Village of Delburne, Alberta, T0M 0V0, Canada"
4.0,1.0,1163.0,96300.0,5212 47 street ,AB,Prairie Provinces,53.230953,-114.0439352,"5212, 47 Street, Thorsby, Alberta, Canada"
1.0,1.0,930225.0,199900.0,12243 107 st nw ,AB,Prairie Provinces,51.139098,-114.2434506,"107 Street NW, Royal Oak, Calgary, Alberta, T3G 0C3, Canada"
3.0,1.0,1300.0,32500.0,5004 44 avenue ,AB,Prairie Provinces,52.02771,-113.93909,"5004, 44 Avenue, Innisfail, Town of Innisfail, Alberta, T4G 1P6, Canada"
5.0,2.0,1100.0,142000.0,217 7 avenue e ,AB,Prairie Provinces,49.8696363,-111.3678895,"7 Avenue East, Bow Island, Town of Bow Island, Alberta, T0K 0G0, Canada"
4.0,2.0,756.0,199999.0,20 centre  street ,AB,Prairie Provinces,53.51723368,-110.32755349,"20, Centre Street, Village of Marwayne, County of Vermilion River, Alberta, T0B 2X0, Canada"
3.0,2.0,1255.0,134900.0,4710 51 street ,AB,Prairie Provinces,52.3220101,-112.70684996118828,"4710, 51 Street, Stettler, Town of Stettler, Alberta, T0C 2L1, Canada"
4.0,2.0,1370.0,64900.0,6305 69 street ,AB,Prairie Provinces,52.29236366666667,-113.83645083333332,"6305, 69 Street, Mustang Acres, City of Red Deer, Red Deer (city), Alberta, T4P 1K4, Canada"
4.0,3.0,1190.0,179900.0,309 nill place ,AB,Prairie Provinces,51.6474267,-111.9353695,"Nill Place, Hanna, Alberta, T0J 1P0, Canada"
3.0,2.0,1624.0,168000.0,4810 47 street ,AB,Prairie Provinces,52.266258,-113.80932,"4810, 47 Street, City of Red Deer, Red Deer (city), Alberta, T4N 4H1, Canada"
3.0,2.0,792.0,170000.0,5109 52 street ,AB,Prairie Provinces,54.12150993125,-114.4062100625,"5109, 52 Street, Town of Barrhead, Barrhead, Alberta, T7N 1A3, Canada"
2.0,1.0,1026.0,198000.0,146 sunrise drive ,AB,Prairie Provinces,54.7331001,-113.5680715,"Sunrise Drive, Athabasca County, Alberta, Canada"
3.0,2.0,1216332.0,71000.0,304 west brook wy nw ,AB,Prairie Provinces,53.55357100017471,-113.69471153473624,"304, West Brook Way NW, Westview Village, Edmonton, St. Albert (city), Alberta, T5S 2C3, Canada"
2.0,2.0,100922.0,90000.0,316 aurora drive ne ,AB,Prairie Provinces,50.584723,-113.8606085,"Aurora Drive NE, High River, Town of High River, Alberta, T1V 1G3, Canada"
4.0,3.0,2052.0,188500.0,79116  highway 744 ,AB,Prairie Provinces,53.5231486,-113.26208023152708,"744, Forrest Drive, Foxboro, Sherwood Park, Strathcona County, Alberta, T8A 4V5, Canada"
2.0,1.0,690.0,177900.0,87 railway avenue ,AB,Prairie Provinces,54.3743518,-113.4567061,"Railway Avenue, Rochester, Athabasca County, Alberta, T0G 1Z0, Canada"
3.0,2.0,1216.0,149900.0,9 meadowplace green ,AB,Prairie Provinces,50.5618863,-111.8577757,"Meadowplace Green, Brooks, City of Brooks, Alberta, T1R 0K7, Canada"
3.0,1.0,858.0,124999.0,179 1 street w ,AB,Prairie Provinces,50.0691345,-112.2651468,"1 Street West, Retlaw, Municipal District of Taber, Alberta, Canada"
4.0,2.0,1125.0,189900.0,5546 49 street ,AB,Prairie Provinces,54.12612618404592,-114.40207184226566,"5546, 49 Street, Town of Barrhead, Barrhead, Alberta, T7N 1A2, Canada"
2.0,1.0,1047.0,109000.0,123 4 avenue sw ,AB,Prairie Provinces,51.0493444,-114.0629295,"4 Avenue SW, Chinatown, Calgary, Alberta, T2G 2B8, Canada"
2.0,2.0,1461.0,129900.0,4220 50 street ,AB,Prairie Provinces,52.3167617,-112.70527616864852,"4220, 50 Street, Stettler, Town of Stettler, Alberta, T0C 2L1, Canada"
3.0,2.0,1440008.0,112500.0,319 maple wood drive nw ,AB,Prairie Provinces,53.5044449,-113.3665787,"Maple Wood Drive NW, Maple Oak Ridge, South Industrial District, Edmonton, Edmonton (city), Alberta, T6P 0E4, Canada"
4.0,1.0,888.0,199000.0,5113 55 street ,AB,Prairie Provinces,53.28871785,-110.00949045,"5113, 55 Street, City of Lloydminster, Lloydminster (city), Alberta, T9V 0Y7, Canada"
1.0,1.0,664.0,119900.0,4816 49 street ,AB,Prairie Provinces,55.06656705,-117.27954556418716,"4816, 49 Street, Valleyview, Town of Valleyview, Alberta, T0H 0C8, Canada"
3.0,2.0,1077.0,199900.0,1101 braemar street se ,AB,Prairie Provinces,50.039803,-110.6661609,"Braemar Street Southeast, Medicine Hat, Medicine Hat (city), Alberta, T1A 8J1, Canada"
3.0,2.0,1114935.0,99900.0,5014 imperial av ,AB,Prairie Provinces,52.0935264,-111.4415053,"Imperial Avenue, Coronation, Town of Coronation, Alberta, T0C 1C0, Canada"
4.0,1.0,1670.0,124900.0,109 3 avenue e ,AB,Prairie Provinces,50.566554,-111.8937187,"3 Avenue E, Brooks, City of Brooks, Alberta, T1R 0E8, Canada"
3.0,2.0,89537.0,167000.0,114 7th avenue ,AB,Prairie Provinces,53.3195765,-113.5722307,"52nd Avenue East, Leduc County, Alberta, T9E 0V4, Canada"
2.0,1.0,842.0,129000.0,445 3 street east ,AB,Prairie Provinces,50.9695707,-113.673472,"3 Street East, Langdon, Rocky View County, Alberta, T0J 1X2, Canada"
3.0,1.0,110215.0,199900.0,209 aberdeen street ,AB,Prairie Provinces,52.1340771,-113.8749644,"Aberdeen Street, Penhold, Town of Penhold, Alberta, Canada"
3.0,2.0,1504054.0,122500.0,4511 snowbird ln ,AB,Prairie Provinces,54.4252303,-110.1953897,"Snowbird Lane, Cold Lake South, City of Cold Lake, Alberta, T9M 1R5, Canada"
4.0,2.0,973.0,200000.0,5404 58 street ,AB,Prairie Provinces,52.6819215875,-113.5896683,"5404, 58 Street, Ponoka, Alberta, T4J 1K2, Canada"
2.0,1.0,680.0,149900.0,9505 104 avenue ,AB,Prairie Provinces,55.17417785714286,-118.7804303,"9505, 104 Avenue, Hillside, Grande Prairie, Grande Prairie (city), Alberta, T8V 5B6, Canada"
1.0,1.0,1066.0,149900.0,7715 patterson dr ,AB,Prairie Provinces,55.1524689,-118.7873325,"7715, Patterson Drive, Patterson Place, Grande Prairie, Grande Prairie (city), Alberta, T8W 1H1, Canada"
3.0,1.0,87597.0,109900.0,4810 46 street ,AB,Prairie Provinces,52.3237321,-112.69953252937997,"4810, 46 Street, Stettler, Town of Stettler, Alberta, T0C 2L1, Canada"
3.0,2.0,1635.0,179500.0,1122 5th ave. ,AB,Prairie Provinces,53.5457722,-113.8958829,"5th Avenue, Broxton Park, City Centre, City of Spruce Grove, Stony Plain (town), Alberta, T7X 2Z1, Canada"
3.0,2.0,973.0,149900.0,725 8 street se ,AB,Prairie Provinces,51.0418891,-114.0420357,"8 Street SE, Ramsay, Calgary, Alberta, T2G 4M4, Canada"
3.0,2.0,1464.0,125000.0,96 2 avenue ,AB,Prairie Provinces,54.15338282545757,-113.13445425923462,"96, 2 Avenue, Thorhild, Thorhild County, Alberta, T0A 3J0, Canada"
2.0,4.0,10285.0,200000.0,48504 range road 60 ,AB,Prairie Provinces,55.09734561087655,-118.76698276811426,"48504, Range Road 60, County of Grande Prairie, Alberta, T8W 5K2, Canada"
1.0,2.0,648962.0,154900.0,11505 96 st nw ,AB,Prairie Provinces,53.56592232142857,-113.49000033214286,"11505, 96 Street NW, Alberta Avenue, Avenue District, Edmonton, Edmonton (city), Alberta, T5H 2N2, Canada"
3.0,2.0,1087164.0,46000.0,1307 west wood ga nw ,AB,Prairie Provinces,53.554354475,-113.6997503125,"1307, West Wood Gate NW, Westview Village, Edmonton, St. Albert (city), Alberta, T5S 2C3, Canada"
2.0,1.0,742.0,155000.0,5110 54a street ,AB,Prairie Provinces,53.28822725,-110.00911595,"5110, 54A Street, City of Lloydminster, Lloydminster (city), Alberta, T9V 2T5, Canada"
2.0,1.0,848.0,134500.0,1901 1 avenue n ,AB,Prairie Provinces,51.0554176,-114.0804857,"1 Avenue NW, Sunnyside, Calgary, Alberta, T2N 0A2, Canada"
2.0,1.0,1056.0,159000.0,5006 44 avenue ,AB,Prairie Provinces,54.7108239,-113.287389,"5006, 44 Avenue, Town of Athabasca, Alberta, T9S 1A3, Canada"
2.0,2.0,950.0,189000.0,4415 47 street ,AB,Prairie Provinces,53.8219479,-113.3284032,"4415, 47 Street, Town of Gibbons, Gibbons, Alberta, T0A 1N0, Canada"
3.0,1.0,1182.0,149889.0,4922 52 street ,AB,Prairie Provinces,53.09428807,-113.47875436,"4922, 52 Street, Millet, Town of Millet, Alberta, T0C 1Z0, Canada"
3.0,1.0,950.0,150000.0,549 2 street sw ,AB,Prairie Provinces,51.0337992,-114.0688021,"2 Street SW, Victoria Park, Mission, Calgary, Alberta, T2S 1S4, Canada"
3.0,1.0,960.0,103900.0,602 3rd avenue ,AB,Prairie Provinces,50.097324,-111.7917036,"3rd Avenue, Hays, Municipal District of Taber, Alberta, Canada"
3.0,2.0,952.0,74900.0,10812 101 avenue ,AB,Prairie Provinces,58.1880492,-116.4153604,"101 Avenue, La Crete, Mackenzie County, Alberta, T0H 2H0, Canada"
2.0,1.0,861766.0,174900.0,11404 94 st nw ,AB,Prairie Provinces,53.5643584,-113.4858264,"11404, 94 Street NW, Alberta Avenue, Avenue District, Edmonton, Edmonton (city), Alberta, T5G 0A2, Canada"
5.0,2.0,18015.0,179900.0,11104 102 avenue ,AB,Prairie Provinces,55.1722715,-118.7653764,"102 Avenue, Ivy Lake Estates, Grande Prairie, Grande Prairie (city), Alberta, T8V 6A3, Canada"
4.0,3.0,1042.0,150000.0,5011 46 street ,AB,Prairie Provinces,54.118282,-114.3946679,"5011, 46 Street, Town of Barrhead, Barrhead, Alberta, T7N 1M1, Canada"
2.0,1.0,768.0,169900.0,5109 56a street ,AB,Prairie Provinces,53.3592303,-113.4227631,"56a Street, Beauridge, Beaumont, Alberta, T4X 1A4, Canada"
3.0,1.0,1503.0,69500.0,4919 51 street ,AB,Prairie Provinces,52.3735538,-114.9204391,"Service Canada Scheduled Outreach, 4919, 51 Street, Rocky Mountain House, Alberta, T4T 1A2, Canada"
3.0,3.0,975.0,159800.0,4915 49 street ,AB,Prairie Provinces,53.7039721,-114.1903392,"4915, 49 Street, Town of Onoway, Onoway (town), Alberta, T0E 1V0, Canada"
2.0,1.0,1031.0,39900.0,5025 53 street ,AB,Prairie Provinces,53.952000615748034,-113.11572293149608,"5025, 53 Street, Redwater, Town of Redwater, Alberta, T0A 2W0, Canada"
3.0,1.0,1224.0,74999.0,409 2 avenue w ,AB,Prairie Provinces,50.5669801,-111.9057279,"2 Avenue W, Brooks, City of Brooks, Alberta, T1R 0E8, Canada"
